{"type": "FeatureCollection", "features": [{"type": "Feature", "properties": {"id": "0bb63746-34ce-4dfd-8f9b-502c70b1b457", "name": "Le Beer", "category": "restaurant", "confidence": 0.9388740675067667, "address": "Ave Jean XXIII"}, "geometry": {"type": "Point", "coordinates": [-17.43833245, 14.66387091]}}, {"type": "Feature", "properties": {"id": "f8adac9e-deef-488b-a6db-41506f61e4e7", "name": "La Parrilla", "category": "restaurant", "confidence": 0.9388740675067667, "address": "Rue Place 18"}, "geometry": {"type": "Point", "coordinates": [-17.43449975, 14.66393001]}}, {"type": "Feature", "properties": {"id": "9115c5ac-4dee-4b92-81c8-f85715581ac1", "name": "L'Elysee Dakar", "category": "restaurant", "confidence": 0.9388740675067667, "address": "180 Ave du President Lamine Gueye"}, "geometry": {"type": "Point", "coordinates": [-17.43708752, 14.66592908]}}, {"type": "Feature", "properties": {"id": "7bef73ff-19a0-49f9-8d5c-b52b6bfebaff", "name": "sokhamon_la_terrasse", "category": "restaurant", "confidence": 0.9657719329850477, "address": "Boulevard Roosevelt x Avenue Nelson Mandela Dakar, Senegal"}, "geometry": {"type": "Point", "coordinates": [-17.442411886584594, 14.66376633746037]}}, {"type": "Feature", "properties": {"id": "567e3d7e-7dee-497e-83d1-558eae7eebe3", "name": "Frial Cafe Restaurant", "category": "restaurant", "confidence": 0.9918101462025052, "address": "Rue de la R\u00e9publique"}, "geometry": {"type": "Point", "coordinates": [-17.44154134, 14.66725985]}}, {"type": "Feature", "properties": {"id": "35de08f5-9555-418e-a88d-787197397f5e", "name": "Resto", "category": "restaurant", "confidence": 0.9388740675067667, "address": "71 Rue Carnot"}, "geometry": {"type": "Point", "coordinates": [-17.43532804, 14.66769692]}}, {"type": "Feature", "properties": {"id": "b49e97f1-779b-4592-abde-8b4ae7d650a4", "name": "Le Dragon", "category": "restaurant", "confidence": 0.9388740675067667, "address": "35 Rue Jules Ferry"}, "geometry": {"type": "Point", "coordinates": [-17.43601477, 14.66638969]}}, {"type": "Feature", "properties": {"id": "4e35eb29-4e41-4744-af2c-1c105ef2b471", "name": "Raspoutine", "category": "restaurant", "confidence": 0.9388740675067667, "address": "120 Rue Mousse Diop"}, "geometry": {"type": "Point", "coordinates": [-17.43502054, 14.66628613]}}, {"type": "Feature", "properties": {"id": "a3e217e3-7ed4-4ceb-a60e-8c8e59403996", "name": "The BIG FIVE", "category": "restaurant", "confidence": 0.9388740675067667, "address": "24 Rue Victor Hugo"}, "geometry": {"type": "Point", "coordinates": [-17.43463592, 14.66592819]}}, {"type": "Feature", "properties": {"id": "ff3112b4-3bd8-4518-b4f3-2686bee1d9e4", "name": "Caesar's Lounge Dkr", "category": "restaurant", "confidence": 0.9657719329850477, "address": "Boulevard de la R\u00e9publique 5"}, "geometry": {"type": "Point", "coordinates": [-17.435964418982, 14.665385414845]}}], "metadata": {"theme": "places", "total": 10, "bbox": [-17.442918178230713, 14.659174644125045, -17.433632621769284, 14.668157755874955], "query_params": {"theme": "places", "center_lon": -17.4382754, "center_lat": 14.6636662, "radius_m": 500, "category": "restaurant", "limit": 10, "xmin": -17.442918178230713, "xmax": -17.433632621769284, "ymin": 14.659174644125045, "ymax": 14.668157755874955}}}