{"type": "FeatureCollection", "features": [{"type": "Feature", "properties": {"id": "f85c8300-2e01-4702-be87-1a4fcc0aa0ee", "name": "Passage 31", "category": "cosmetic_and_beauty_supplies", "confidence": 0.9388740675067667, "address": "13 Passage Pommeraye"}, "geometry": {"type": "Point", "coordinates": [-1.55987288, 47.21356842]}}, {"type": "Feature", "properties": {"id": "93a83ea1-e029-4938-9f1c-fd651b79fa01", "name": "FNAIM Loire Atlantique", "category": "organization", "confidence": 0.77, "address": "6 rue Jean de la Fontaine"}, "geometry": {"type": "Point", "coordinates": [-1.5617495423155194, 47.21456510084108]}}, {"type": "Feature", "properties": {"id": "a88bee17-39ce-480e-b748-56d1eb084cb2", "name": "Le Copernic - g\u00eete de ville Nantes Citybreak Premium", "category": "hotel", "confidence": 0.9854475308641976, "address": "24 Rue Copernic"}, "geometry": {"type": "Point", "coordinates": [-1.56721, 47.214672]}}, {"type": "Feature", "properties": {"id": "b69541b1-11c9-405a-91bd-5128ce93875b", "name": "Father & Sons Nantes", "category": "mens_clothing_store", "confidence": 0.9388740675067667, "address": "18 Rue Cr\u00e9billon"}, "geometry": {"type": "Point", "coordinates": [-1.56083317, 47.21370606]}}, {"type": "Feature", "properties": {"id": "4d4f7b52-f1b3-4a51-9573-ae2dd6015248", "name": "Mus\u00e9e de l'Imprimerie", "category": "museum", "confidence": 0.77, "address": "24 quai de la Fosse"}, "geometry": {"type": "Point", "coordinates": [-1.561843854796467, 47.21095210704236]}}, {"type": "Feature", "properties": {"id": "d6712e42-be15-4a11-90fc-1895a54518e4", "name": "Andr\u00e9 BTP", "category": "home_improvement_store", "confidence": 0.77, "address": "32 rue la Noue Bras de Fer"}, "geometry": {"type": "Point", "coordinates": [-1.5628007048997643, 47.20698529719146]}}, {"type": "Feature", "properties": {"id": "f5dba598-facc-4c2f-84da-4b07b9ec1662", "name": "Cr\u00eaperie La Tete Noire", "category": "pancake_house", "confidence": 0.9657719329850477, "address": "12 Rue des Vieilles Douves"}, "geometry": {"type": "Point", "coordinates": [-1.558877, 47.21503]}}, {"type": "Feature", "properties": {"id": "3ef1a220-11e0-469d-bf10-139e6ba6241e", "name": "NANTES GRASLIN", "category": "banks", "confidence": 0.4, "address": "1 RUE GRESSET"}, "geometry": {"type": "Point", "coordinates": [-1.5626849, 47.2128833]}}, {"type": "Feature", "properties": {"id": "80cee630-a1c1-4517-aa19-1c8e63f736b1", "name": "Eden Park", "category": "boutique", "confidence": 0.9859410355265563, "address": "15 Rue Rubens"}, "geometry": {"type": "Point", "coordinates": [-1.56030607, 47.21451892]}}, {"type": "Feature", "properties": {"id": "e85ba04f-ee9b-47d4-9317-1be5c6d6a3ae", "name": "Le Bouffay", "category": "bar", "confidence": 0.77, "address": "2 Place du Bouffay"}, "geometry": {"type": "Point", "coordinates": [-1.552914878256899, 47.214908187931904]}}, {"type": "Feature", "properties": {"id": "f198bdd4-e0c9-4ef2-b152-b76c9ab8d301", "name": "Ambrosia", "category": "lounge", "confidence": 0.9388740675067667, "address": "6 Rue Scribe"}, "geometry": {"type": "Point", "coordinates": [-1.56114045, 47.21421932]}}, {"type": "Feature", "properties": {"id": "da8382bb-6746-44a3-b206-d80f76e5c7f2", "name": "Meeschaert", "category": "financial_advising", "confidence": 0.77, "address": "1 rue Saint Julien"}, "geometry": {"type": "Point", "coordinates": [-1.5589993664412594, 47.214794714871644]}}, {"type": "Feature", "properties": {"id": "dc4e8a5e-e04f-41f2-ae84-696e95153132", "name": "L'Atelier de Jules", "category": "hair_salon", "confidence": 0.77, "address": "9 rue Contrescarpe"}, "geometry": {"type": "Point", "coordinates": [-1.5595897846933615, 47.21480175470466]}}, {"type": "Feature", "properties": {"id": "ccd1e6dd-3c5b-49bf-b55e-2545f204d2d7", "name": "Schmidt", "category": "home_and_garden", "confidence": 0.9388740675067667, "address": "3 Rue de Strasbourg"}, "geometry": {"type": "Point", "coordinates": [-1.55086226, 47.21541173]}}, {"type": "Feature", "properties": {"id": "502d5815-c746-4121-a592-037f69cf4ff5", "name": "Les Chevaliers de la Duchesse", "category": "community_services_non_profits", "confidence": 0.9388740675067667, "address": "14 Rue Michel Rocher"}, "geometry": {"type": "Point", "coordinates": [-1.54975891, 47.20637229]}}, {"type": "Feature", "properties": {"id": "9e59ab54-2029-41e5-b3a7-a164a95c9b91", "name": "LMYR", "category": "advertising_agency", "confidence": 0.77, "address": "1 rue du Guesclin"}, "geometry": {"type": "Point", "coordinates": [-1.5560502843668833, 47.21295673604511]}}, {"type": "Feature", "properties": {"id": "13cd5fbe-8222-4403-9d1f-f071e621e0b9", "name": "Grande Ourse films", "category": "cinema", "confidence": 0.9367283950617284, "address": "5 All\u00e9e Frida Kahlo"}, "geometry": {"type": "Point", "coordinates": [-1.55962, 47.20646]}}, {"type": "Feature", "properties": {"id": "f33ae590-e89c-47b4-a8d9-9a0e997a7137", "name": "Soneo Films", "category": "event_photography", "confidence": 0.9388740675067667, "address": "10 Rue Michel Columb"}, "geometry": {"type": "Point", "coordinates": [-1.55363991, 47.206574]}}, {"type": "Feature", "properties": {"id": "4c49d0da-28bb-4b2f-ac91-eb3740bd3315", "name": "La Grignotine Nantaise", "category": "bakery", "confidence": 0.9367283950617284, "address": "4 Rue de la Barillerie"}, "geometry": {"type": "Point", "coordinates": [-1.555062, 47.215349]}}, {"type": "Feature", "properties": {"id": "70d5c76a-86a1-42dd-8ee5-3241012c65d9", "name": "Domifacile Nantes", "category": "home_health_care", "confidence": 0.9367283950617284, "address": "1 All\u00e9e de la Maison Rouge"}, "geometry": {"type": "Point", "coordinates": [-1.550679, 47.212842]}}, {"type": "Feature", "properties": {"id": "a4c6afc0-659f-4dfb-9be4-a38e67664785", "name": "Sephora", "category": "cosmetic_and_beauty_supplies", "confidence": 0.9388740675067667, "address": "11 Rue d'Orl\u00e9ans"}, "geometry": {"type": "Point", "coordinates": [-1.5572129, 47.2145459]}}, {"type": "Feature", "properties": {"id": "ce78be46-4b8d-4443-81c1-4d9f8e7dd65e", "name": "Katorza - Nantes", "category": "cinema", "confidence": 0.9764705882352941, "address": "3 Rue Corneille"}, "geometry": {"type": "Point", "coordinates": [-1.5626449401516478, 47.213747227586396]}}, {"type": "Feature", "properties": {"id": "8957bdd8-de42-4956-997a-9b893b1bdfd5", "name": "YellowKorner", "category": "art_gallery", "confidence": 0.9388740675067667, "address": "7 Rue Cr\u00e9billon"}, "geometry": {"type": "Point", "coordinates": [-1.55984302, 47.21385098]}}, {"type": "Feature", "properties": {"id": "205aa706-65e8-4824-a287-199847eed808", "name": "FLE Nantes", "category": "language_school", "confidence": 0.9388740675067667, "address": "1 Rue du Calvaire"}, "geometry": {"type": "Point", "coordinates": [-1.55951036, 47.21564643]}}, {"type": "Feature", "properties": {"id": "0013fb93-ea0b-4c9a-b6c4-8c1001f6cccf", "name": "Le Sur Mesure", "category": "beer_bar", "confidence": 0.9859410355265563, "address": "15 Rue Beauregard"}, "geometry": {"type": "Point", "coordinates": [-1.55544325, 47.21481731]}}, {"type": "Feature", "properties": {"id": "4e3c9f81-b24e-47e5-b273-939a34ec2b4a", "name": "Chicken Street", "category": "fast_food_restaurant", "confidence": 0.4, "address": "4 cours Olivier de Clisson, Nantes, 44000"}, "geometry": {"type": "Point", "coordinates": [-1.5549671, 47.2132254]}}, {"type": "Feature", "properties": {"id": "8a594cad-d748-4a8d-aea5-526ed1f38112", "name": "IES Abroad Nantes Center", "category": "education", "confidence": 0.9388740675067667, "address": "7 Rue des Cadeniers"}, "geometry": {"type": "Point", "coordinates": [-1.56451014, 47.21159498]}}, {"type": "Feature", "properties": {"id": "dc9c38c0-36da-4a60-bdfd-3c1f33d56275", "name": "Les 3 M", "category": "french_restaurant", "confidence": 0.9859410355265563, "address": "9 Rue Jean-Jacques Rousseau"}, "geometry": {"type": "Point", "coordinates": [-1.56118037, 47.21237556]}}, {"type": "Feature", "properties": {"id": "e15555ba-241e-48e6-8435-a7679570b1fe", "name": "Galerie Albane", "category": "art_gallery", "confidence": 0.77, "address": "1 rue Suffren"}, "geometry": {"type": "Point", "coordinates": [-1.5611588959602598, 47.212924538215724]}}, {"type": "Feature", "properties": {"id": "980c8576-0c16-473c-81b2-267b18fab98a", "name": "Cassou Xavier", "category": "notary_public", "confidence": 0.77, "address": "9 rue du Chapeau Rouge"}, "geometry": {"type": "Point", "coordinates": [-1.5607706306715319, 47.214815825378984]}}, {"type": "Feature", "properties": {"id": "efd191c1-038c-42eb-a3af-cb141530206f", "name": "Enc-Nantes", "category": "college_university", "confidence": 0.9918101462025052, "address": "1 Place de la Bourse"}, "geometry": {"type": "Point", "coordinates": [-1.55883045, 47.21297693]}}, {"type": "Feature", "properties": {"id": "c708ca83-4972-490e-b5dc-c0b77defcf8a", "name": "Cap's Bar", "category": "bar", "confidence": 0.9388740675067667, "address": "9 Rue Bon Secours"}, "geometry": {"type": "Point", "coordinates": [-1.5538427, 47.21361851]}}, {"type": "Feature", "properties": {"id": "af3ad86b-cf7e-4aaf-bf97-0b1eb57df240", "name": "L'ADRESSE EMILIE", "category": "real_estate_agent", "confidence": 0.77, "address": "42 rue de la R\u00e9publique"}, "geometry": {"type": "Point", "coordinates": [-1.5547744847589355, 47.20675439396025]}}, {"type": "Feature", "properties": {"id": "c0535ea4-21b9-4631-8457-43065bed1d17", "name": "Espaces Atypiques Nantes", "category": "real_estate_agent", "confidence": 0.9388740675067667, "address": "3 Place de la Monnaie"}, "geometry": {"type": "Point", "coordinates": [-1.56542695, 47.21320213]}}, {"type": "Feature", "properties": {"id": "05b38e06-00ba-4510-801c-32b73eb2efc0", "name": "Bouillon Gloriette", "category": "french_restaurant", "confidence": 0.9859410355265563, "address": "11 Quai de la Fosse"}, "geometry": {"type": "Point", "coordinates": [-1.56021871, 47.21161301]}}, {"type": "Feature", "properties": {"id": "40575ad1-f346-4d8f-8382-48123713ebbb", "name": "Antonny Le Meur", "category": "naturopathic_holistic", "confidence": 0.9388740675067667, "address": "35 Chauss\u00e9e de la Madeleine"}, "geometry": {"type": "Point", "coordinates": [-1.5506146, 47.21007921]}}, {"type": "Feature", "properties": {"id": "1c68669a-3e29-4c78-9974-1b3694674fc8", "name": "Pomme B\u00fbche", "category": "fast_food_restaurant", "confidence": 0.9388740675067667, "address": "3 Rue de la Juiverie"}, "geometry": {"type": "Point", "coordinates": [-1.55267269, 47.21570768]}}, {"type": "Feature", "properties": {"id": "67b7e2b8-6824-47d2-9955-81437ef700e8", "name": "Cr\u00e9dit Foncier de France", "category": "banks", "confidence": 0.77, "address": "5 place Royale"}, "geometry": {"type": "Point", "coordinates": [-1.5586750942055307, 47.214765455874215]}}, {"type": "Feature", "properties": {"id": "304e46ba-8bb7-4fa5-a94c-b9889f11d318", "name": "Studiomoto", "category": "graphic_designer", "confidence": 0.9388740675067667, "address": "1 Rue Beauregard"}, "geometry": {"type": "Point", "coordinates": [-1.55445554, 47.21518498]}}, {"type": "Feature", "properties": {"id": "627f3635-e53f-4782-a6d0-e2c730274615", "name": "La Fabrique Onirique", "category": "boutique", "confidence": 0.9388740675067667, "address": "15 Rue des Vieilles Douves"}, "geometry": {"type": "Point", "coordinates": [-1.55884092, 47.21526131]}}, {"type": "Feature", "properties": {"id": "5941eadf-bcd6-40fe-a8b6-f92aff8d4e66", "name": "Sous l'Arbre \u00e0 Palabre", "category": "bookstore", "confidence": 0.9367283950617284, "address": "70 Quai de la Fosse"}, "geometry": {"type": "Point", "coordinates": [-1.56608, 47.20948]}}, {"type": "Feature", "properties": {"id": "cf57e10b-6959-4650-98be-99ebf64c73d4", "name": "L'Imaginarium - Nantes", "category": "theme_restaurant", "confidence": 0.9388740675067667, "address": "28 Rue Louis Blanc"}, "geometry": {"type": "Point", "coordinates": [-1.55493771, 47.20583093]}}, {"type": "Feature", "properties": {"id": "8dc4a1c4-c4f0-4c9c-8060-bfadec12a05e", "name": "Le Monte-Escalier Nantais", "category": "industrial_equipment", "confidence": 0.9388740675067667, "address": "4 Rue Urvoy de Saint-Bedan"}, "geometry": {"type": "Point", "coordinates": [-1.56612081, 47.21327454]}}, {"type": "Feature", "properties": {"id": "2aa7946c-2668-4015-9768-b0069884a999", "name": "Jack's Corner Pub&Food", "category": "pub", "confidence": 0.9388740675067667, "address": "2 Rue de la B\u00e2clerie"}, "geometry": {"type": "Point", "coordinates": [-1.55316334, 47.21514835]}}, {"type": "Feature", "properties": {"id": "7e8c410d-6500-48fb-8852-e5dfdb972879", "name": "American Vintage Femme", "category": "womens_clothing_store", "confidence": 0.9915646213159338, "address": "1 Rue Gr\u00e9try"}, "geometry": {"type": "Point", "coordinates": [-1.5610167, 47.213294]}}, {"type": "Feature", "properties": {"id": "3b3fc645-09f0-4022-a0ca-25bd59b421ab", "name": "Paq la Lune", "category": "sports_and_recreation_venue", "confidence": 0.9367283950617284, "address": "14 Rue Grande Biesse"}, "geometry": {"type": "Point", "coordinates": [-1.549171, 47.206433]}}, {"type": "Feature", "properties": {"id": "8e4dc175-0d1f-41bf-a5e5-26301925275f", "name": "Muscadoth\u00e8que", "category": "wine_bar", "confidence": 0.9388740675067667, "address": "61 Quai de la Fosse"}, "geometry": {"type": "Point", "coordinates": [-1.56482897, 47.20988577]}}, {"type": "Feature", "properties": {"id": "abbe6528-d935-496d-9383-504564f0dd10", "name": "Le Monseigneur", "category": "moroccan_restaurant", "confidence": 0.9388740675067667, "address": "5 Place de la Bourse"}, "geometry": {"type": "Point", "coordinates": [-1.55908137, 47.21270762]}}, {"type": "Feature", "properties": {"id": "bfbf8c02-621c-4492-a4b6-71a770cca7ab", "name": "La Tomate", "category": "pizza_restaurant", "confidence": 0.9388740675067667, "address": "3B All\u00e9e Flesselles"}, "geometry": {"type": "Point", "coordinates": [-1.55493813, 47.21415708]}}, {"type": "Feature", "properties": {"id": "2b1f4445-f7f7-4025-9bb1-ada69b6f8776", "name": "Titan", "category": "architectural_designer", "confidence": 0.9388740675067667, "address": "1 Rue Buffon"}, "geometry": {"type": "Point", "coordinates": [-1.56359753, 47.21454365]}}, {"type": "Feature", "properties": {"id": "2de49186-88fb-4377-9ff4-c5f403a70d0d", "name": "Dolita", "category": "jewelry_store", "confidence": 0.9859410355265563, "address": "11 Rue Contrescarpe"}, "geometry": {"type": "Point", "coordinates": [-1.55947265, 47.21501165]}}, {"type": "Feature", "properties": {"id": "3eb29593-05a2-423b-925f-47a803ed705a", "name": "School of L'Onde du Dragon", "category": "martial_arts_club", "confidence": 0.9918101462025052, "address": "20 Rue La Tour d'Auvergne"}, "geometry": {"type": "Point", "coordinates": [-1.55587592, 47.20653335]}}, {"type": "Feature", "properties": {"id": "ab1f7995-cb76-44e9-ac1a-c4d94657f61b", "name": "Simgo", "category": "labor_union", "confidence": 0.9388740675067667, "address": "INTERNAT H\u00d4TEL-DIEU CHU DE NANTES, 11 Rue Gaston Veil"}, "geometry": {"type": "Point", "coordinates": [-1.55583815, 47.21011221]}}, {"type": "Feature", "properties": {"id": "cd6af020-2fde-4eb0-8615-79d3f4b8ab1a", "name": "Uk Horn Roland Sovanna", "category": "bar", "confidence": 0.9367283950617284, "address": "21 Quai de la Fosse"}, "geometry": {"type": "Point", "coordinates": [-1.561278, 47.211225]}}, {"type": "Feature", "properties": {"id": "855df2e8-68d5-4e60-b4d0-bd237cc8c08c", "name": "Ibis Styles Nantes Centre Place Graslin", "category": "hotel", "confidence": 0.9915646213159338, "address": "5 Rue du Chapeau Rouge"}, "geometry": {"type": "Point", "coordinates": [-1.56026208, 47.21499236]}}, {"type": "Feature", "properties": {"id": "0e121ccd-b767-423d-803a-f0c4d7bb83a9", "name": "NantAgora", "category": "advertising_agency", "confidence": 0.9388740675067667, "address": "1 All\u00e9e d'Orl\u00e9ans"}, "geometry": {"type": "Point", "coordinates": [-1.55632418, 47.21512328]}}, {"type": "Feature", "properties": {"id": "5c205c60-136a-4179-b816-ff6bed01007c", "name": "la fabrique \u00e0 plans", "category": "architectural_designer", "confidence": 0.9388740675067667, "address": "22 Rue des Olivettes"}, "geometry": {"type": "Point", "coordinates": [-1.54941575, 47.21084331]}}, {"type": "Feature", "properties": {"id": "e247c41c-3bae-4787-9747-05bdbb736dd0", "name": "Langouet Thomas", "category": "photographer", "confidence": 0.77, "address": "6 cours Olivier de Clisson"}, "geometry": {"type": "Point", "coordinates": [-1.5547196378814248, 47.213067790248964]}}, {"type": "Feature", "properties": {"id": "a488eedd-5037-4cd1-b31d-266913868073", "name": "Columbus Caf\u00e9 & Co", "category": "coffee_shop", "confidence": 0.9915646213159338, "address": "5 Square Fleuriot de Langle"}, "geometry": {"type": "Point", "coordinates": [-1.55717965, 47.2139281]}}, {"type": "Feature", "properties": {"id": "370f9b53-3c07-4229-a932-e9db6fe6e0b3", "name": "Bibliotheque Universitaire de Nantes", "category": "library", "confidence": 0.4, "address": "Res Elect Biblio Univ, Chem Censive Tertre"}, "geometry": {"type": "Point", "coordinates": [-1.5559717, 47.20955]}}, {"type": "Feature", "properties": {"id": "63f3f68f-e2d5-42eb-8ca7-df8239da06e5", "name": "Tribunal de Grande Instance de Nantes", "category": "courthouse", "confidence": 0.9388740675067667, "address": "19 Quai Fran\u00e7ois Mitterrand"}, "geometry": {"type": "Point", "coordinates": [-1.56130272, 47.20775269]}}, {"type": "Feature", "properties": {"id": "917b0a79-2d3b-4ac1-8e3b-e2f5b58b3a7e", "name": "Baco-Lu", "category": "parking", "confidence": 0.9388740675067667, "address": "All. Baco"}, "geometry": {"type": "Point", "coordinates": [-1.54902921, 47.21422698]}}, {"type": "Feature", "properties": {"id": "522238aa-126e-46dc-9dfd-a59229122e69", "name": "H\u00f4tel Graslin", "category": "hotel", "confidence": 0.77, "address": "1 rue Piron"}, "geometry": {"type": "Point", "coordinates": [-1.5619082910014617, 47.21229865452794]}}, {"type": "Feature", "properties": {"id": "7ea8c4a9-2641-46fe-9bab-da0f74f8ea1b", "name": "Paola", "category": "italian_restaurant", "confidence": 0.9859410355265563, "address": "2 Rue Julien Videment"}, "geometry": {"type": "Point", "coordinates": [-1.56412337, 47.20756512]}}, {"type": "Feature", "properties": {"id": "38584933-81f1-4010-a0aa-fad4f8ac9573", "name": "Gaumont", "category": "cinema", "confidence": 0.9921275445865609, "address": "4 Passage du Commerce"}, "geometry": {"type": "Point", "coordinates": [-1.558375, 47.213382]}}, {"type": "Feature", "properties": {"id": "0feea2b9-1264-4c3b-aed3-d30f3514e2b0", "name": "Ecole de danse Vous avez dit classique ?", "category": "dance_school", "confidence": 0.9367283950617284, "address": "20 Rue La Tour d'Auvergne"}, "geometry": {"type": "Point", "coordinates": [-1.555545, 47.206577]}}, {"type": "Feature", "properties": {"id": "bc6bde71-272f-49b6-bdbe-62be1a48a9e8", "name": "Pharmacy Theatre", "category": "vitamins_and_supplements", "confidence": 0.9859410355265563, "address": "1 Place Graslin"}, "geometry": {"type": "Point", "coordinates": [-1.56185855, 47.21324187]}}, {"type": "Feature", "properties": {"id": "70f34e21-bbbd-4a74-b983-33bc43e0b81f", "name": "Place de la Bourse", "category": "public_plaza", "confidence": 0.9367283950617284, "address": "1 Place de la Bourse"}, "geometry": {"type": "Point", "coordinates": [-1.558914, 47.212999]}}, {"type": "Feature", "properties": {"id": "b05b418d-99ea-45c5-a684-6abc9b764a9d", "name": "H\u00e9ritage Media", "category": "media_news_company", "confidence": 0.9764705882352941, "address": "2 Rue Crucy"}, "geometry": {"type": "Point", "coordinates": [-1.54644, 47.21483]}}, {"type": "Feature", "properties": {"id": "69c56ac7-b53f-4c69-bd1c-aee7385710c3", "name": "Awakening Musical M\u00e9lopie", "category": "music_school", "confidence": 0.9388740675067667, "address": "11 Rue P\u00e9lisson"}, "geometry": {"type": "Point", "coordinates": [-1.55150115, 47.21230013]}}, {"type": "Feature", "properties": {"id": "90725b25-93d0-47f5-b8d6-c68e61a8bea0", "name": "Romain MAGANA Notaire Nantes", "category": "notary_public", "confidence": 0.77, "address": "1 place Delorme"}, "geometry": {"type": "Point", "coordinates": [-1.5634505867474633, 47.215211662034164]}}, {"type": "Feature", "properties": {"id": "6705b893-38ed-4ae8-9a42-87d1f3db6e5d", "name": "T.C Nantes Turk Konsoloslu\u011fu", "category": "embassy", "confidence": 0.9657719329850477, "address": "20 Quai Fran\u00e7ois Mitterrand"}, "geometry": {"type": "Point", "coordinates": [-1.5625355986696312, 47.20825507884459]}}, {"type": "Feature", "properties": {"id": "76818bfb-36a4-4788-9231-d7140bab8f97", "name": "ABC Terroirs", "category": "liquor_store", "confidence": 0.9859410355265563, "address": "9 Rue Franklin"}, "geometry": {"type": "Point", "coordinates": [-1.5633888, 47.21445757]}}, {"type": "Feature", "properties": {"id": "eb098af8-ea8c-4a72-9b14-8e6a08f6942f", "name": "Exupery Formation", "category": "internet_marketing_service", "confidence": 0.9388740675067667, "address": "4 Rue Voltaire"}, "geometry": {"type": "Point", "coordinates": [-1.56338244, 47.21282783]}}, {"type": "Feature", "properties": {"id": "27268241-c7ed-44fc-bf2c-94c3cf686dd6", "name": "Syndicat CGT du CHU de Nantes", "category": "labor_union", "confidence": 0.9388740675067667, "address": "3 Rue Gaston Veil"}, "geometry": {"type": "Point", "coordinates": [-1.55508957, 47.21149896]}}, {"type": "Feature", "properties": {"id": "efd9931e-2365-4b2a-a46b-dc9ba2aad1bd", "name": "CENTURY 21 By Ouest \u00e0 Nantes", "category": "real_estate_agent", "confidence": 0.9367283950617284, "address": "4 Boulevard des Martyrs Nantais de la R\u00e9sistance"}, "geometry": {"type": "Point", "coordinates": [-1.548465, 47.206323]}}, {"type": "Feature", "properties": {"id": "5e29431c-ca58-47f9-98c3-f46cc00b3d5e", "name": "Caf\u00e9 du Passage", "category": "bar", "confidence": 0.9388740675067667, "address": "2 Place F\u00e9lix Fournier"}, "geometry": {"type": "Point", "coordinates": [-1.55741708, 47.21479763]}}, {"type": "Feature", "properties": {"id": "5f9f5000-634c-4354-b118-1a5cb5aed5c2", "name": "Place Fran\u00e7ois-II", "category": "public_plaza", "confidence": 0.9367283950617284, "address": "Place Fran\u00e7ois II"}, "geometry": {"type": "Point", "coordinates": [-1.55671, 47.2063]}}, {"type": "Feature", "properties": {"id": "6b00c71b-85e4-4cbf-916d-548dabb14acf", "name": "L'Autre March\u00e9, par Les Ecossolies", "category": "farmers_market", "confidence": 0.9367283950617284, "address": "Esplanade du Carr\u00e9 Feydeau"}, "geometry": {"type": "Point", "coordinates": [-1.5517544746399, 47.214233814603]}}, {"type": "Feature", "properties": {"id": "74cecf70-9184-4f88-a561-5810fb166908", "name": "Pharmacie Voltaire", "category": "drugstore", "confidence": 0.77, "address": "21 Rue Voltaire 44000 Nantes France"}, "geometry": {"type": "Point", "coordinates": [-1.5665856142979666, 47.21162625496032]}}, {"type": "Feature", "properties": {"id": "f347b0ea-aa1a-4b1b-a08a-b0bf112e77dc", "name": "Geraldine Ducros avocate", "category": "lawyer", "confidence": 0.9854475308641976, "address": "56 Rue Four\u00e9"}, "geometry": {"type": "Point", "coordinates": [-1.54728783, 47.21011021]}}, {"type": "Feature", "properties": {"id": "3cbc7e70-804a-4c22-afdc-bdcf006bfe70", "name": "Hemon Camus Immobilier", "category": "community_services_non_profits", "confidence": 0.77, "address": "Rue Scribe"}, "geometry": {"type": "Point", "coordinates": [-1.5635635466456255, 47.21385031100286]}}, {"type": "Feature", "properties": {"id": "057bf9a3-1a06-420b-acef-c3edb8155953", "name": "Gamecash", "category": "video_game_store", "confidence": 0.9859410355265563, "address": "5 Rue de l'Arche S\u00e8che"}, "geometry": {"type": "Point", "coordinates": [-1.55868619, 47.21573436]}}, {"type": "Feature", "properties": {"id": "fa777021-87bd-41e1-ba97-806dda46f3ab", "name": "Ecole de Communication Nantes - ISEG", "category": "adult_education", "confidence": 0.77, "address": "8 rue De Br\u00e9a"}, "geometry": {"type": "Point", "coordinates": [-1.5656463792606232, 47.211310413959545]}}, {"type": "Feature", "properties": {"id": "f146a427-eee2-49a2-befa-8542d3124021", "name": "Pompes Fun\u00e8bres G\u00e9n\u00e9rales", "category": "funeral_services_and_cemeteries", "confidence": 0.77, "address": "2 rue Gaston Veil"}, "geometry": {"type": "Point", "coordinates": [-1.5565854925824936, 47.211109549576314]}}, {"type": "Feature", "properties": {"id": "8f6d54b2-0528-4636-90ec-c8c6d6fc3c7a", "name": "Nantes Centre Ville", "category": "landmark_and_historical_building", "confidence": 0.9657719329850477, "address": null}, "geometry": {"type": "Point", "coordinates": [-1.5538117384896, 47.215053662861]}}, {"type": "Feature", "properties": {"id": "9bbd57c7-4b3c-409b-aca7-dcfe81bfebfd", "name": "Sun 7", "category": "fast_food_restaurant", "confidence": 0.9859410355265563, "address": "2 All\u00e9e Jean Bart"}, "geometry": {"type": "Point", "coordinates": [-1.55531857, 47.21429446]}}, {"type": "Feature", "properties": {"id": "6ac52169-e835-435a-b3e2-2c34a4c3c4db", "name": "Bagelstein", "category": "bagel_shop", "confidence": 0.9388740675067667, "address": "12 Place de la Bourse"}, "geometry": {"type": "Point", "coordinates": [-1.55951802, 47.21228488]}}, {"type": "Feature", "properties": {"id": "f6f03675-b782-4df0-af55-1fb100c2343a", "name": "MMA Assurances Nantes Calvaire", "category": "insurance_agency", "confidence": 0.9388740675067667, "address": "3 Rue du Calvaire"}, "geometry": {"type": "Point", "coordinates": [-1.55975599, 47.21562861]}}, {"type": "Feature", "properties": {"id": "653c0632-61b9-44f4-a061-406c7964b3bd", "name": "Basic-Fit", "category": "health_and_wellness_club", "confidence": 0.4, "address": "20 Passage Pommeraye"}, "geometry": {"type": "Point", "coordinates": [-1.559700616856542, 47.213508688914416]}}, {"type": "Feature", "properties": {"id": "d232dbdc-29df-4195-9fe5-55869a8eb4cc", "name": "Esprit", "category": "clothing_store", "confidence": 0.77, "address": "4 rue Scribe"}, "geometry": {"type": "Point", "coordinates": [-1.5609877575648743, 47.2142344058366]}}, {"type": "Feature", "properties": {"id": "95ed33b0-3299-4bf1-ac08-a671f72ad50f", "name": "MRV Avocats", "category": "legal_services", "confidence": 0.77, "address": "6 rue Voltaire"}, "geometry": {"type": "Point", "coordinates": [-1.5635817273018706, 47.2128348467817]}}, {"type": "Feature", "properties": {"id": "2462a085-2646-4a3c-a28b-75d4fb3835d5", "name": "La Guinguette du Belv\u00e9d\u00e8re", "category": "bar", "confidence": 0.9859410355265563, "address": "21 Boulevard Gaston Doumergue"}, "geometry": {"type": "Point", "coordinates": [-1.54681108, 47.20763721]}}, {"type": "Feature", "properties": {"id": "955e5cae-d0b9-4f71-a155-59dae33d69bd", "name": "Poisson Bouge", "category": "web_designer", "confidence": 0.9388740675067667, "address": "7 Rue des Cadeniers"}, "geometry": {"type": "Point", "coordinates": [-1.56466966, 47.21168556]}}, {"type": "Feature", "properties": {"id": "9e1d9f94-f4db-4e9a-9553-63789ae832c5", "name": "izyNgo", "category": "business", "confidence": 0.9388740675067667, "address": "4 Rue Voltaire"}, "geometry": {"type": "Point", "coordinates": [-1.56341062, 47.21287021]}}, {"type": "Feature", "properties": {"id": "dcad3d74-fe60-404c-8426-3782ffb63cf6", "name": "La Cite Nantes Events Center", "category": "topic_concert_venue", "confidence": 0.9367283950617284, "address": "5 Rue de Valmy"}, "geometry": {"type": "Point", "coordinates": [-1.547137603962027, 47.21501849658255]}}, {"type": "Feature", "properties": {"id": "6f9134e4-8044-4dbf-8873-32767121562b", "name": "Pizza Hut", "category": "pizza_restaurant", "confidence": 0.9915646213159338, "address": "64 Quai de la Fosse"}, "geometry": {"type": "Point", "coordinates": [-1.56536928, 47.20970194]}}, {"type": "Feature", "properties": {"id": "f005eeed-8e50-4443-86a1-bf987a5b2660", "name": "Rue de la Barillerie", "category": "landmark_and_historical_building", "confidence": 0.9657719329850477, "address": null}, "geometry": {"type": "Point", "coordinates": [-1.55492, 47.2151]}}, {"type": "Feature", "properties": {"id": "a144ddc7-1d45-43c9-a701-dedefb108e62", "name": "Le Tant'Ra", "category": "french_restaurant", "confidence": 0.77, "address": "6 Cours Olivier de Clisson"}, "geometry": {"type": "Point", "coordinates": [-1.5547196378814248, 47.21306779024897]}}, {"type": "Feature", "properties": {"id": "9b2d0615-95da-4a0b-943b-a2d29599d36d", "name": "Faculty Of Pharmacy", "category": "college_university", "confidence": 0.9388740675067667, "address": "9 Rue Bias"}, "geometry": {"type": "Point", "coordinates": [-1.55747137, 47.20990887]}}, {"type": "Feature", "properties": {"id": "5d883533-4d73-4420-a29e-2c5303b1fb26", "name": "ADHAP Services", "category": "retirement_home", "confidence": 0.9367283950617284, "address": "2 Place de la R\u00e9publique"}, "geometry": {"type": "Point", "coordinates": [-1.555031, 47.205606]}}, {"type": "Feature", "properties": {"id": "ea6e7367-37ca-4717-b5c5-f2b9b277c9e0", "name": "Essentiel", "category": "community_services_non_profits", "confidence": 0.9388740675067667, "address": "29 Quai Fran\u00e7ois Mitterrand"}, "geometry": {"type": "Point", "coordinates": [-1.56396476, 47.20737895]}}, {"type": "Feature", "properties": {"id": "182315c4-1b2a-4760-b764-b8b6e8755418", "name": "Shypie", "category": "pet_groomer", "confidence": 0.9388740675067667, "address": "1 Rue Copernic"}, "geometry": {"type": "Point", "coordinates": [-1.56357367, 47.21506926]}}, {"type": "Feature", "properties": {"id": "54d415de-61f5-4751-a2dd-01b5333e6f8b", "name": "LoviTech", "category": "it_service_and_computer_repair", "confidence": 0.9388740675067667, "address": "6 Place Fran\u00e7ois II"}, "geometry": {"type": "Point", "coordinates": [-1.55690973, 47.20608899]}}, {"type": "Feature", "properties": {"id": "92110358-5399-4d93-93b5-a8ebb874fb50", "name": "Et la Fourmi...", "category": "cafe", "confidence": 0.9388740675067667, "address": "2 Rue Gr\u00e9try"}, "geometry": {"type": "Point", "coordinates": [-1.56093031, 47.21332367]}}, {"type": "Feature", "properties": {"id": "dfcc9da7-2dd4-4daa-b7d5-e6874bff4c08", "name": "Picard", "category": "supermarket", "confidence": 0.9915646213159338, "address": "7 Boulevard Gabriel Guist'Hau"}, "geometry": {"type": "Point", "coordinates": [-1.56501207, 47.21556481]}}, {"type": "Feature", "properties": {"id": "fdf8d34e-dadf-44e2-b706-867ac1caf465", "name": "AIDES", "category": "community_services_non_profits", "confidence": 0.9388740675067667, "address": "20 Rue Baron"}, "geometry": {"type": "Point", "coordinates": [-1.54916427, 47.21103536]}}, {"type": "Feature", "properties": {"id": "55189655-cdad-45dc-a169-30223438f27d", "name": "Le_Scribe_Nantes", "category": "tapas_bar", "confidence": 0.9657719329850477, "address": "6 Rue Scribe"}, "geometry": {"type": "Point", "coordinates": [-1.561099, 47.21426]}}, {"type": "Feature", "properties": {"id": "02dc3e6c-9a7d-4ad3-b9c2-8415fa9ffb14", "name": "Jou\u00e9Club", "category": "toy_store", "confidence": 0.77, "address": "9  rue Sainte Catherine"}, "geometry": {"type": "Point", "coordinates": [-1.5565917932505993, 47.21403809869966]}}, {"type": "Feature", "properties": {"id": "148244fa-f863-4d15-8d5d-928cbe5af3de", "name": "Saha la coupe", "category": "beauty_and_spa", "confidence": 0.9657719329850477, "address": "13 All\u00e9e Duguay-Trouin"}, "geometry": {"type": "Point", "coordinates": [-1.55642, 47.2129288]}}, {"type": "Feature", "properties": {"id": "7b9b5e9a-c39a-40cd-bc73-a98553445eb5", "name": "CNIEG", "category": "financial_service", "confidence": 0.9388740675067667, "address": "20 Rue des Fran\u00e7ais Libres"}, "geometry": {"type": "Point", "coordinates": [-1.54665151, 47.20727001]}}, {"type": "Feature", "properties": {"id": "bda6ae59-e1d3-479e-bd66-610c4a172ea3", "name": "Serrurier Nantes Express", "category": "key_and_locksmith", "confidence": 0.9388740675067667, "address": "15 Rue de la Rosi\u00e8re d'Artois"}, "geometry": {"type": "Point", "coordinates": [-1.56720428, 47.2127459]}}, {"type": "Feature", "properties": {"id": "9494c8ba-3bd9-4236-900a-6a86ada7364e", "name": "Foucr\u00e9 Emmanuelle", "category": "lawyer", "confidence": 0.9388740675067667, "address": "38 Rue La Nou\u00eb Bras de Fer"}, "geometry": {"type": "Point", "coordinates": [-1.56381119, 47.20677033]}}, {"type": "Feature", "properties": {"id": "a518c553-d690-4c10-b6a5-545a0a7735ca", "name": "Institut Endermologie IDENE", "category": "beauty_salon", "confidence": 0.9388740675067667, "address": "3 Rue Alain Barbe-Torte"}, "geometry": {"type": "Point", "coordinates": [-1.55675926, 47.20690305]}}, {"type": "Feature", "properties": {"id": "29a68977-e8e1-4196-b5fc-7dd463cc60b1", "name": "Popeyes Nantes", "category": "fast_food_restaurant", "confidence": 0.9388740675067667, "address": "19 Parvis Neptune"}, "geometry": {"type": "Point", "coordinates": [-1.55230721, 47.2143122]}}, {"type": "Feature", "properties": {"id": "47050af5-ca3e-4fb0-bc0f-0055fa98beb0", "name": "Bar Rouge", "category": "bar", "confidence": 0.77, "address": "30 quai Fernand Crouan"}, "geometry": {"type": "Point", "coordinates": [-1.5648288549623295, 47.207491804244334]}}, {"type": "Feature", "properties": {"id": "973d480d-d630-498f-b8b6-dedbf5b92717", "name": "Au 9 c\u00f4t\u00e9 cour, salon de coiffure", "category": "beauty_salon", "confidence": 0.9657719329850477, "address": "7 Rue La Fayette"}, "geometry": {"type": "Point", "coordinates": [-1.5595109, 47.21485907]}}, {"type": "Feature", "properties": {"id": "4608df5c-55cb-4716-b2f4-53789020e127", "name": "John Doe Escape Game Nantes", "category": "escape_rooms", "confidence": 0.9918101462025052, "address": "13 Rue des Olivettes"}, "geometry": {"type": "Point", "coordinates": [-1.54967482, 47.21201551]}}, {"type": "Feature", "properties": {"id": "f50fea1f-6c3a-4760-9e1e-193b0d1f3ec2", "name": "BANQUE TRANSATLANTIQUE - NON COT\u00c9S", "category": "banks", "confidence": 0.4, "address": "10 RUE DE RIEUX"}, "geometry": {"type": "Point", "coordinates": [-1.545951, 47.21097]}}, {"type": "Feature", "properties": {"id": "7aaa2d13-2b88-4007-aeb8-7bfd702d62fe", "name": "ADB Caf\u00e9", "category": "bar", "confidence": 0.77, "address": "3 all\u00e9e du Port Maillard"}, "geometry": {"type": "Point", "coordinates": [-1.55084395171591, 47.215137263970774]}}, {"type": "Feature", "properties": {"id": "b50b4dbd-52ad-4aff-bf66-1bc3c16eed45", "name": "Superdry", "category": "clothing_store", "confidence": 0.4, "address": "Passage De La Chatelaine 11 Rue De Scribe"}, "geometry": {"type": "Point", "coordinates": [-1.561530797312738, 47.21398997959052]}}, {"type": "Feature", "properties": {"id": "2b4581bf-4c6e-46a9-94fe-e84346e6e5f0", "name": "La ferme des Olivettes", "category": "grocery_store", "confidence": 0.9367283950617284, "address": "2 rue des Olivettes"}, "geometry": {"type": "Point", "coordinates": [-1.5501385024644396, 47.21235142092648]}}, {"type": "Feature", "properties": {"id": "8c323028-fe68-4686-89dd-96abfc2ab078", "name": "Istanbul Kebab", "category": "halal_restaurant", "confidence": 0.9367283950617284, "address": "13 Rue des Halles"}, "geometry": {"type": "Point", "coordinates": [-1.5557899, 47.2157288]}}, {"type": "Feature", "properties": {"id": "ac51b31e-2777-474f-8c17-a461537f1d76", "name": "Agence France Presse", "category": "bookstore", "confidence": 0.77, "address": "11 rue Boileau"}, "geometry": {"type": "Point", "coordinates": [-1.5609114036713376, 47.215198373820726]}}, {"type": "Feature", "properties": {"id": "8a7404dd-ef7c-46b3-959a-301e07b8fa85", "name": "Restaurant OMIJA", "category": "french_restaurant", "confidence": 0.9859410355265563, "address": "54 Rue Four\u00e9"}, "geometry": {"type": "Point", "coordinates": [-1.54723314, 47.21037293]}}, {"type": "Feature", "properties": {"id": "dfa9b850-cf54-4356-8a38-07d2031ffc8f", "name": "La Cigale", "category": "french_restaurant", "confidence": 0.9859410355265563, "address": "2 Place Graslin"}, "geometry": {"type": "Point", "coordinates": [-1.56231552, 47.21288058]}}, {"type": "Feature", "properties": {"id": "75264a93-60cf-43a5-a586-f29d19c42874", "name": "Parking Feydeau", "category": "parking", "confidence": 0.9859410355265563, "address": "Cr Commandant d'Estienne d'Orves"}, "geometry": {"type": "Point", "coordinates": [-1.55233326, 47.21359585]}}, {"type": "Feature", "properties": {"id": "447e686b-53de-4658-9f94-85240b6cc82c", "name": "Pibot-Dangleant Chaput Meyer le Tertre Dubreil", "category": "legal_services", "confidence": 0.77, "address": "14 rue Cr\u00e9billon"}, "geometry": {"type": "Point", "coordinates": [-1.5604921284907298, 47.21388148557937]}}, {"type": "Feature", "properties": {"id": "6aa7500f-2ce0-4352-b951-248807043fa5", "name": "La Recre", "category": "barbecue_restaurant", "confidence": 0.77, "address": "5 rue Baron"}, "geometry": {"type": "Point", "coordinates": [-1.5476385254293294, 47.21118017952248]}}, {"type": "Feature", "properties": {"id": "b235aba5-3700-4da4-b433-593334e52b1b", "name": "Superdry", "category": "clothing_store", "confidence": 0.9367283950617284, "address": "11 Rue de la Barillerie"}, "geometry": {"type": "Point", "coordinates": [-1.555448, 47.21526]}}, {"type": "Feature", "properties": {"id": "18a1a891-30d5-4120-90c3-535e0ec3a489", "name": "Blockhaus DY10", "category": "event_planning", "confidence": 0.9921275445865609, "address": "5B Boulevard L\u00e9on Bureau"}, "geometry": {"type": "Point", "coordinates": [-1.56429981, 47.2067957]}}, {"type": "Feature", "properties": {"id": "d54b9e6b-58d1-4384-b5a2-242b2afaf18c", "name": "Module Nantes", "category": "bar", "confidence": 0.9764705882352941, "address": "31B Rue La Tour d'Auvergne"}, "geometry": {"type": "Point", "coordinates": [-1.55793, 47.20614]}}, {"type": "Feature", "properties": {"id": "17306729-21e9-4bff-af55-4b1e2509a1c2", "name": "AZUR Meuble Boghni", "category": "furniture_store", "confidence": 0.9764705882352941, "address": "La Sortie De Boghni Route Qui M\u00e8ne Vers Mechtras En Face B\u00e2timent Khedache"}, "geometry": {"type": "Point", "coordinates": [-1.5479926356867926, 47.211223369276254]}}, {"type": "Feature", "properties": {"id": "c767a899-b284-4ac4-9860-fd5ca1931763", "name": "D\u00e9lice V\u00e9g\u00e9tal", "category": "vegetarian_restaurant", "confidence": 0.9388740675067667, "address": "65 Quai de la Fosse"}, "geometry": {"type": "Point", "coordinates": [-1.56568458, 47.20961663]}}, {"type": "Feature", "properties": {"id": "57a7e5b3-711a-4eb6-a388-b12255d5831b", "name": "swimming pool", "category": "advertising_agency", "confidence": 0.9388740675067667, "address": "27 Rue du Calvaire"}, "geometry": {"type": "Point", "coordinates": [-1.56282174, 47.21509541]}}, {"type": "Feature", "properties": {"id": "73853e8c-2cb0-42b4-a967-c85cd22b1576", "name": "G\u00e9rontop\u00f4le des Pays de la Loire", "category": "community_services_non_profits", "confidence": 0.9367283950617284, "address": "8 Rue Arthur III"}, "geometry": {"type": "Point", "coordinates": [-1.56224, 47.20698]}}, {"type": "Feature", "properties": {"id": "9528d187-ab20-4a3e-9a2d-881b6a7ab70e", "name": "Nantes Natation", "category": "sports_club_and_league", "confidence": 0.9859410355265563, "address": "13 Chauss\u00e9e de la Madeleine"}, "geometry": {"type": "Point", "coordinates": [-1.55167427, 47.21118221]}}, {"type": "Feature", "properties": {"id": "e31a393b-3f6e-4bac-a087-22dfcd578641", "name": "Le Yum Shake Bar - Nantes", "category": "health_food_restaurant", "confidence": 0.9657719329850477, "address": "61 Quai Magellan"}, "geometry": {"type": "Point", "coordinates": [-1.54876326, 47.20910659]}}, {"type": "Feature", "properties": {"id": "ebf1ccf1-ae2a-43ce-8e3f-3263a8313472", "name": "Euro Cautions", "category": "insurance_agency", "confidence": 0.77, "address": "32 rue Scribe"}, "geometry": {"type": "Point", "coordinates": [-1.563826666245696, 47.21399732479693]}}, {"type": "Feature", "properties": {"id": "fd7b3bc5-4429-4630-adbb-fb05b2daf6e5", "name": "Agence Air France", "category": "travel_agents", "confidence": 0.77, "address": "6 Place Royale"}, "geometry": {"type": "Point", "coordinates": [-1.558913694273473, 47.2146328815917]}}, {"type": "Feature", "properties": {"id": "8aec7c8c-3a35-4eb3-9e02-eeb2b81d9461", "name": "Boutique Aigle Nantes", "category": "clothing_store", "confidence": 0.77, "address": "3 rue Contrescarpe"}, "geometry": {"type": "Point", "coordinates": [-1.5594214780318112, 47.21430884836323]}}, {"type": "Feature", "properties": {"id": "ffa248b2-c2d7-4b9b-9040-60d399c7bf9b", "name": "Osteopathe Nantes", "category": "osteopathic_physician", "confidence": 0.9388740675067667, "address": "14 Rue du Chapeau Rouge"}, "geometry": {"type": "Point", "coordinates": [-1.56150625, 47.215179]}}, {"type": "Feature", "properties": {"id": "02a1b011-74d0-42d2-b364-cd652b8be0f8", "name": "Careformance", "category": "business", "confidence": 0.9388740675067667, "address": "3 Quai de Tourville"}, "geometry": {"type": "Point", "coordinates": [-1.55697926, 47.20956886]}}, {"type": "Feature", "properties": {"id": "67d02a06-3b42-49e9-81b4-64b155cb2bc4", "name": "Blue Factory", "category": "restaurant", "confidence": 0.9388740675067667, "address": "Le Caboulot, 45 Rue La Tour d'Auvergne"}, "geometry": {"type": "Point", "coordinates": [-1.56066295, 47.20585878]}}, {"type": "Feature", "properties": {"id": "f9584896-fd57-4575-9d1f-d60c196ded67", "name": "La Passag\u00e8re", "category": "cafe", "confidence": 0.9859410355265563, "address": "3 Passage Pommeraye"}, "geometry": {"type": "Point", "coordinates": [-1.55971553, 47.21362069]}}, {"type": "Feature", "properties": {"id": "9ea49908-d2ad-4417-a536-40827d32bda9", "name": "Nantes Atlantique Canoe Kayak", "category": "gym", "confidence": 0.9657719329850477, "address": "11 Impasse Juton"}, "geometry": {"type": "Point", "coordinates": [-1.55151, 47.21181]}}, {"type": "Feature", "properties": {"id": "5f71b95f-f85d-46db-b4b9-f8414ca74b7b", "name": "Supplay", "category": "employment_agencies", "confidence": 0.77, "address": "49 quai de la Fosse"}, "geometry": {"type": "Point", "coordinates": [-1.5635965959971507, 47.21035504309324]}}, {"type": "Feature", "properties": {"id": "46a27781-11c3-4b61-abff-48bba0e8bd9c", "name": "La Cantine Du Cur\u00e9", "category": "pancake_house", "confidence": 0.9859410355265563, "address": "3 Rue Sainte-Croix"}, "geometry": {"type": "Point", "coordinates": [-1.55411931, 47.21550557]}}, {"type": "Feature", "properties": {"id": "155b2ef4-8bf3-42d8-bd0f-e28ca76e7d7b", "name": "Manhattan Corner Nantes", "category": "grocery_store", "confidence": 0.9657719329850477, "address": "8 rue Rubens"}, "geometry": {"type": "Point", "coordinates": [-1.55979, 47.21452]}}, {"type": "Feature", "properties": {"id": "68c3de00-9410-4c50-a077-4fec09a7c179", "name": "Le Sur Mesure Graslin", "category": "pub", "confidence": 0.9388740675067667, "address": "5 Rue Jean-Jacques Rousseau"}, "geometry": {"type": "Point", "coordinates": [-1.56023635, 47.21234157]}}, {"type": "Feature", "properties": {"id": "9cfba431-79e7-409f-8f47-2ba484c802a5", "name": "Penser et Agir par Mathieu V\u00e9nisse", "category": "elementary_school", "confidence": 0.9764705882352941, "address": "19 Rue La P\u00e9rouse"}, "geometry": {"type": "Point", "coordinates": [-1.555122, 47.213396]}}, {"type": "Feature", "properties": {"id": "22ceee16-a8f4-484e-8fc1-6f7ae3187f9f", "name": "FRAM Nantes", "category": "travel_services", "confidence": 0.9388740675067667, "address": "32 Rue du Calvaire"}, "geometry": {"type": "Point", "coordinates": [-1.56309608, 47.21515121]}}, {"type": "Feature", "properties": {"id": "5485948f-918c-4d52-aeb3-42cd4559d62a", "name": "Chez papa EDoukou au Rio Dos", "category": "african_restaurant", "confidence": 0.9367283950617284, "address": "22 Boulevard Babin Chevaye"}, "geometry": {"type": "Point", "coordinates": [-1.55123, 47.20573]}}, {"type": "Feature", "properties": {"id": "05a8f36a-5a98-4ce1-b902-66ec8efc9b3f", "name": "Cafe Delorme", "category": "bar", "confidence": 0.9657719329850477, "address": "1 Place Delorme"}, "geometry": {"type": "Point", "coordinates": [-1.563451, 47.215212]}}, {"type": "Feature", "properties": {"id": "8adf12e8-001a-4a27-b713-4a8509b6e7d3", "name": "Meghane Barriol", "category": "psychologist", "confidence": 0.9388740675067667, "address": "35 Chauss\u00e9e de la Madeleine"}, "geometry": {"type": "Point", "coordinates": [-1.55073655, 47.21004235]}}, {"type": "Feature", "properties": {"id": "8bae1d5b-26cc-46ed-b596-4a2d6dc601aa", "name": "Patrick Comedy Club", "category": "comedy_club", "confidence": 0.9918101462025052, "address": "13 Rue de la Juiverie"}, "geometry": {"type": "Point", "coordinates": [-1.55305139, 47.21548765]}}, {"type": "Feature", "properties": {"id": "7d396708-f15e-41a7-8e1c-8140fdb61844", "name": "Uniqlo", "category": "clothing_store", "confidence": 0.4, "address": "8bis All\u00e9e Brancas, 44000 Nantes"}, "geometry": {"type": "Point", "coordinates": [-1.5567649, 47.2136457]}}, {"type": "Feature", "properties": {"id": "b95c1475-86b2-4acc-9be1-e8b8d1a7a273", "name": "Naniwa by Edo", "category": "sushi_restaurant", "confidence": 0.9388740675067667, "address": "5 Rue Santeuil"}, "geometry": {"type": "Point", "coordinates": [-1.56039452, 47.21339926]}}, {"type": "Feature", "properties": {"id": "d903e84a-96da-4702-82d0-43b1f1fd1d2f", "name": "Les Sales Gosses", "category": "brewery", "confidence": 0.77, "address": "15 rue Crucy"}, "geometry": {"type": "Point", "coordinates": [-1.5481491312716393, 47.213953875884435]}}, {"type": "Feature", "properties": {"id": "553eaa49-39d7-4665-95e7-85fad6e96b69", "name": "Yd\u00e9al - Ma\u00eetre d'oeuvre", "category": "architectural_designer", "confidence": 0.9367283950617284, "address": "3 Rue Rameau"}, "geometry": {"type": "Point", "coordinates": [-1.56072, 47.21312]}}, {"type": "Feature", "properties": {"id": "d818e96d-c932-4821-9ef2-921ec356f388", "name": "Takoma", "category": "advertising_agency", "confidence": 0.77, "address": "8 rue Emile Pehant"}, "geometry": {"type": "Point", "coordinates": [-1.546206830704339, 47.21360890969262]}}, {"type": "Feature", "properties": {"id": "254577b4-fc6f-4e90-938a-2e1f40a973b3", "name": "Nantes-Roller", "category": "sports_and_recreation_venue", "confidence": 0.9657719329850477, "address": "1 Place Alexis Ricordeau"}, "geometry": {"type": "Point", "coordinates": [-1.5528702735901, 47.212062047899]}}, {"type": "Feature", "properties": {"id": "f4aa2222-369c-4ceb-aa0d-bc8bcd41d3e2", "name": "Ucpa", "category": "travel_services", "confidence": 0.9367283950617284, "address": "4 All\u00e9e Jean Bart"}, "geometry": {"type": "Point", "coordinates": [-1.55577, 47.21492]}}, {"type": "Feature", "properties": {"id": "6647e350-44ea-43f3-9a9c-b1bbbb95f22b", "name": "Zelda Burger", "category": "burger_restaurant", "confidence": 0.9367283950617284, "address": "10 All\u00e9e Duguay-Trouin"}, "geometry": {"type": "Point", "coordinates": [-1.55605079, 47.21408798]}}, {"type": "Feature", "properties": {"id": "84b3db28-8879-4e9d-bc3a-9bc3d0fac17e", "name": "Soubeille B\u00e9reng\u00e8re", "category": "legal_services", "confidence": 0.77, "address": "49 quai de la Fosse"}, "geometry": {"type": "Point", "coordinates": [-1.5635078845775325, 47.21036245442058]}}, {"type": "Feature", "properties": {"id": "6e59cade-4dc1-4818-a3d2-3fcc193d19bc", "name": "Opticiens Claireux", "category": "optometrist", "confidence": 0.9854475308641976, "address": "5 Rue de la Barillerie"}, "geometry": {"type": "Point", "coordinates": [-1.555093, 47.21529]}}, {"type": "Feature", "properties": {"id": "7c7138ea-53d6-4458-82a5-96ca2077d587", "name": "Canaille Caf\u00e9", "category": "cafe", "confidence": 0.9388740675067667, "address": "6 All\u00e9e d'Orl\u00e9ans"}, "geometry": {"type": "Point", "coordinates": [-1.55655478, 47.21553134]}}, {"type": "Feature", "properties": {"id": "d84195a0-3d3d-4d10-bbc9-d472af3b0242", "name": "V\u00e9liflex", "category": "industrial_equipment", "confidence": 0.9388740675067667, "address": "35 Chauss\u00e9e de la Madeleine"}, "geometry": {"type": "Point", "coordinates": [-1.55061421, 47.21007615]}}, {"type": "Feature", "properties": {"id": "c491239b-ef36-4d3f-a63c-19907e169e6a", "name": "La Scierie", "category": "pub", "confidence": 0.9859410355265563, "address": "3 All\u00e9e de l'\u00cele Gloriette"}, "geometry": {"type": "Point", "coordinates": [-1.55676713, 47.21125195]}}, {"type": "Feature", "properties": {"id": "bcb5a8bf-6a7d-4bb8-ab50-83ba16cbed29", "name": "Vinted Go Locker", "category": "shipping_center", "confidence": 1.0, "address": "18 Rue du Calvaire"}, "geometry": {"type": "Point", "coordinates": [-1.561428, 47.215537]}}, {"type": "Feature", "properties": {"id": "83222b8c-1058-4a81-9a04-4909e84cd787", "name": "Pharmacy la Madeleine", "category": "pharmacy", "confidence": 0.9388740675067667, "address": "17 Chauss\u00e9e de la Madeleine"}, "geometry": {"type": "Point", "coordinates": [-1.55148352, 47.21093464]}}, {"type": "Feature", "properties": {"id": "8cecb31a-f98f-42f5-b888-3cba926ad03f", "name": "Nantes Livres Jeunes", "category": "community_services_non_profits", "confidence": 0.9388740675067667, "address": "24 Quai de la Fosse"}, "geometry": {"type": "Point", "coordinates": [-1.56228954, 47.21118669]}}, {"type": "Feature", "properties": {"id": "60940def-6982-4111-8295-949f367a9757", "name": "Galerie Loire Nantes", "category": "art_gallery", "confidence": 0.9367283950617284, "address": null}, "geometry": {"type": "Point", "coordinates": [-1.5576338085407, 47.207443763943]}}, {"type": "Feature", "properties": {"id": "10e38a8e-fe81-4f04-9b19-b4c3dab91a2a", "name": "Chez Franklin", "category": "french_restaurant", "confidence": 0.9981163336265761, "address": "10 Rue Franklin"}, "geometry": {"type": "Point", "coordinates": [-1.56319023, 47.21426887]}}, {"type": "Feature", "properties": {"id": "cfa6db2c-2009-4d29-acd5-877b36c015c0", "name": "Bubble's Bar", "category": "bar", "confidence": 0.77, "address": "59 quai de la Fosse"}, "geometry": {"type": "Point", "coordinates": [-1.5647559025035822, 47.209920192101855]}}, {"type": "Feature", "properties": {"id": "0c603bdf-bf57-4965-9e75-0186a2dbb41e", "name": "Unicis Rencontres Nantes", "category": "arts_and_entertainment", "confidence": 0.9764705882352941, "address": "1 Rue Buffon"}, "geometry": {"type": "Point", "coordinates": [-1.56365, 47.21456]}}, {"type": "Feature", "properties": {"id": "17aec7ba-2519-4396-b6cc-39b1c7298895", "name": "Soleil Sucr\u00e9", "category": "lingerie_store", "confidence": 0.77, "address": "12 rue Boileau"}, "geometry": {"type": "Point", "coordinates": [-1.560617707833556, 47.215110237245696]}}, {"type": "Feature", "properties": {"id": "9d44f558-fe8c-4884-880e-a92d14cc29e5", "name": "Tabac Presse Le Petit Tigre", "category": "tobacco_shop", "confidence": 0.9388740675067667, "address": "1 Rue Louis Blanc"}, "geometry": {"type": "Point", "coordinates": [-1.55488255, 47.20721214]}}, {"type": "Feature", "properties": {"id": "474f08ea-c0ab-45d8-90e8-4131e4aa815c", "name": "Zazou", "category": "beer_garden", "confidence": 0.9388740675067667, "address": "3 Quai Turenne"}, "geometry": {"type": "Point", "coordinates": [-1.5538015, 47.21313944]}}, {"type": "Feature", "properties": {"id": "727a0873-6175-4fcf-899d-a68a8cd05634", "name": "Institut Secrets de Beaut\u00e9", "category": "hair_salon", "confidence": 0.77, "address": "17 rue Voltaire"}, "geometry": {"type": "Point", "coordinates": [-1.5658728705026623, 47.21185480582324]}}, {"type": "Feature", "properties": {"id": "aef10258-f969-4d1a-ae8f-8778b6f9f946", "name": "O'100 pressions", "category": "beer_bar", "confidence": 0.77, "address": "3 rue de l'\u00c9chelle"}, "geometry": {"type": "Point", "coordinates": [-1.5586384220940748, 47.21516281424114]}}, {"type": "Feature", "properties": {"id": "5f7e7206-4188-4259-babc-8e34a04b6d03", "name": "Bar Prohibition", "category": "bar", "confidence": 0.9388740675067667, "address": "7 Rue de la B\u00e2clerie"}, "geometry": {"type": "Point", "coordinates": [-1.55336262, 47.21521432]}}, {"type": "Feature", "properties": {"id": "c7876b01-db4d-4d51-bb60-de1cc94e3b68", "name": "Darjeeling Nantes", "category": "lingerie_store", "confidence": 0.9859410355265563, "address": "9 Rue d'Orl\u00e9ans"}, "geometry": {"type": "Point", "coordinates": [-1.55702074, 47.21464188]}}, {"type": "Feature", "properties": {"id": "758ff901-6e94-41f9-9f95-2a9204fcfbfe", "name": "Soon Caf\u00e9", "category": "cocktail_bar", "confidence": 0.77, "address": "13 place du Commerce"}, "geometry": {"type": "Point", "coordinates": [-1.5585250565332933, 47.2132571117012]}}, {"type": "Feature", "properties": {"id": "11fb7522-660f-45c8-b300-7b55ea2f7e6d", "name": "G.A.N Capitalisation", "category": "financial_service", "confidence": 0.77, "address": "5 rue Regnard"}, "geometry": {"type": "Point", "coordinates": [-1.562018484053503, 47.21274009226148]}}, {"type": "Feature", "properties": {"id": "d8714f92-7941-47c9-ab64-ecae3983e8cf", "name": "Pi\u00e8ce Introuvable 237", "category": "car_dealer", "confidence": 0.9764705882352941, "address": "centre ville "}, "geometry": {"type": "Point", "coordinates": [-1.55567, 47.21414]}}, {"type": "Feature", "properties": {"id": "f2f1ed0b-d022-4b73-9002-e3ee0e19ae0c", "name": "MMA NANTES CALVAIRE", "category": "financial_service", "confidence": 0.77, "address": "3 rue du Calvaire"}, "geometry": {"type": "Point", "coordinates": [-1.55967881, 47.21554074]}}, {"type": "Feature", "properties": {"id": "11e52557-24c5-48d0-bbd0-3cd2f60b51be", "name": "Chaganan", "category": "clothing_store", "confidence": 0.77, "address": "1 rue de la Paix"}, "geometry": {"type": "Point", "coordinates": [-1.5543709542896842, 47.21439241489978]}}, {"type": "Feature", "properties": {"id": "4838eb3a-a4f1-4bb9-b79f-6d8656b32015", "name": "Moda Nantes", "category": "dance_club", "confidence": 0.9388740675067667, "address": "32B Rue Crucy"}, "geometry": {"type": "Point", "coordinates": [-1.55002431, 47.21306007]}}, {"type": "Feature", "properties": {"id": "791e1792-8ff9-44f8-a5a8-48c67a7a14f8", "name": "MONDOVELO NANTES - CITY", "category": "bicycle_shop", "confidence": 0.4, "address": "35 Chauss\u00e9e De La Madeleine"}, "geometry": {"type": "Point", "coordinates": [-1.55062, 47.21006]}}, {"type": "Feature", "properties": {"id": "88e76c93-4102-4177-bd25-50495eae6627", "name": "20 Heures Vin", "category": "bar", "confidence": 0.9367283950617284, "address": null}, "geometry": {"type": "Point", "coordinates": [-1.5621, 47.21319]}}, {"type": "Feature", "properties": {"id": "4772abdd-2dbe-4dcf-a698-a712491710fb", "name": "Otaku No Dera", "category": "comic_books_store", "confidence": 0.9388740675067667, "address": "5 Place Royale"}, "geometry": {"type": "Point", "coordinates": [-1.5586538, 47.21470303]}}, {"type": "Feature", "properties": {"id": "1dacb0bd-f1c9-4eb7-b2e4-d41d674518ad", "name": "Le 100 P'", "category": "bar", "confidence": 0.9388740675067667, "address": "3 Rue de l'\u00c9chelle"}, "geometry": {"type": "Point", "coordinates": [-1.55853072, 47.21519109]}}, {"type": "Feature", "properties": {"id": "6dd7af23-2904-4ea1-8021-0d487b1e3754", "name": "Histoire de Formes", "category": "clothing_store", "confidence": 0.77, "address": "11 rue des Halles"}, "geometry": {"type": "Point", "coordinates": [-1.5555885042299697, 47.21564266637085]}}, {"type": "Feature", "properties": {"id": "7f397de7-8c1a-4a8e-9e9a-edebc6c7f9bb", "name": "Pepe Jeans", "category": "clothing_store", "confidence": 0.4, "address": "Rue de la Marne"}, "geometry": {"type": "Point", "coordinates": [-1.5543221, 47.2156435]}}, {"type": "Feature", "properties": {"id": "29333a1b-d8a2-4338-bffd-bc0b239a3986", "name": "Garage Voltaire", "category": "automotive_repair", "confidence": 0.77, "address": "23 rue Flandres Dunkerque"}, "geometry": {"type": "Point", "coordinates": [-1.5664723648012104, 47.21135405876286]}}, {"type": "Feature", "properties": {"id": "bcacf8d6-12f9-4b7f-ab88-d45d5b8cfd10", "name": "Amazone", "category": "clothing_store", "confidence": 0.77, "address": "15 rue Cr\u00e9billon"}, "geometry": {"type": "Point", "coordinates": [-1.5605257507854255, 47.21365336145456]}}, {"type": "Feature", "properties": {"id": "0f9a8871-d823-46f7-81e5-542fbb9745d8", "name": "Xadice Engineering", "category": "engineering_services", "confidence": 0.9388740675067667, "address": "18 Rue Cr\u00e9billon"}, "geometry": {"type": "Point", "coordinates": [-1.56080068, 47.21370578]}}, {"type": "Feature", "properties": {"id": "9ffae7d6-d51c-45cb-bfa3-d44562b5da83", "name": "The Red & Luna", "category": "japanese_restaurant", "confidence": 0.9859410355265563, "address": "7 Rue de la Juiverie"}, "geometry": {"type": "Point", "coordinates": [-1.55293316, 47.21562312]}}, {"type": "Feature", "properties": {"id": "339efc52-88aa-4a11-b5f1-9b7cc4e00aa5", "name": "Ultra Normal Tattoo", "category": "tattoo_and_piercing", "confidence": 0.9388740675067667, "address": "33 Rue des Olivettes"}, "geometry": {"type": "Point", "coordinates": [-1.54924461, 47.21069658]}}, {"type": "Feature", "properties": {"id": "b820eb21-87b7-4a91-90b8-889a1c60599f", "name": "Tree House", "category": "bakery", "confidence": 0.77, "address": "3 rue Bon Secours"}, "geometry": {"type": "Point", "coordinates": [-1.5537010248489318, 47.21388504419431]}}, {"type": "Feature", "properties": {"id": "c0be023d-4793-4d92-bcbe-9c6a46d0df58", "name": "EDENN - Syndicat de Bassin Versant de l'Erdre", "category": "community_services_non_profits", "confidence": 0.9367283950617284, "address": "1 Rue du Calvaire"}, "geometry": {"type": "Point", "coordinates": [-1.55946858, 47.21563545]}}, {"type": "Feature", "properties": {"id": "dc6c1456-4a94-4491-a034-88c25be516c9", "name": "Le Geant des Beaux-Arts", "category": "arts_and_crafts", "confidence": 0.9388740675067667, "address": "8 Rue de l'Ang\u00e9lique des Estuaires"}, "geometry": {"type": "Point", "coordinates": [-1.55860236, 47.20736445]}}, {"type": "Feature", "properties": {"id": "80fb6269-3d82-407d-ae5d-f239a5b1bcdf", "name": "Cr\u00eaperie Ker Breizh", "category": "pancake_house", "confidence": 0.9388740675067667, "address": "11 Rue de l'H\u00e9ronni\u00e8re"}, "geometry": {"type": "Point", "coordinates": [-1.56197167, 47.21188373]}}, {"type": "Feature", "properties": {"id": "18189778-9fdf-40e1-b582-24c960b94499", "name": "Nantes Pressing", "category": "laundry_services", "confidence": 0.77, "address": "1 Rue Galissonni\u00e8re"}, "geometry": {"type": "Point", "coordinates": [-1.565564378356242, 47.21424648537426]}}, {"type": "Feature", "properties": {"id": "79302120-b219-420c-b1ed-98f8d4d47540", "name": "Groupe Morgan Services - Lafosse", "category": "employment_agencies", "confidence": 0.9388740675067667, "address": "3 Place du Commandant Jean L'Herminier"}, "geometry": {"type": "Point", "coordinates": [-1.56762011, 47.20941575]}}, {"type": "Feature", "properties": {"id": "7c3e0843-fd0b-4b4c-b283-127122707dde", "name": "Hariet et Rosie", "category": "pet_store", "confidence": 0.9859410355265563, "address": "5 Rue Voltaire"}, "geometry": {"type": "Point", "coordinates": [-1.56409909, 47.21247702]}}, {"type": "Feature", "properties": {"id": "b7e1433d-6c41-4d84-a68e-21cf3058ce5b", "name": "Espacimmo Invest", "category": "real_estate", "confidence": 0.9388740675067667, "address": "8 Rue Racine"}, "geometry": {"type": "Point", "coordinates": [-1.56368195, 47.21376862]}}, {"type": "Feature", "properties": {"id": "6596965f-9f7e-4bbd-8cc2-fbf1bf9343cd", "name": "Digiluxe", "category": "health_and_medical", "confidence": 0.9388740675067667, "address": "1B Rue d'Alger"}, "geometry": {"type": "Point", "coordinates": [-1.56596628, 47.21080911]}}, {"type": "Feature", "properties": {"id": "202580b3-25dd-4d98-91ec-d4defb9490d1", "name": "Au Comptoir Ib\u00e9rique", "category": "restaurant", "confidence": 0.77, "address": "3 rue de L\u2019Emery"}, "geometry": {"type": "Point", "coordinates": [-1.5519268193684226, 47.215666524355996]}}, {"type": "Feature", "properties": {"id": "ab0c77bc-7d0b-4610-8d75-f9d15ac1901c", "name": "Maternit\u00e9 CHU Nantes", "category": "hospital", "confidence": 0.77, "address": "bd Jean moulin"}, "geometry": {"type": "Point", "coordinates": [-1.5506850645141528, 47.20923622081564]}}, {"type": "Feature", "properties": {"id": "942f4e44-7073-477e-80f4-c3e7fd3dfd9c", "name": "Spar Republique", "category": "grocery_store", "confidence": 0.77, "address": "10 boulevard de la Prairie au Duc"}, "geometry": {"type": "Point", "coordinates": [-1.5560406953348507, 47.20529673456529]}}, {"type": "Feature", "properties": {"id": "dc18ec04-2d64-4599-a320-e5592c2eaa7e", "name": "Boutique DEGRENNE", "category": "arts_and_crafts", "confidence": 0.77, "address": "4 rue Franklin"}, "geometry": {"type": "Point", "coordinates": [-1.5629425338310656, 47.2139021779661]}}, {"type": "Feature", "properties": {"id": "eab4c4bd-c3e1-409e-a245-f1ac469f82aa", "name": "Renault & dacia ; Agence laennec", "category": "automotive_repair", "confidence": 0.77, "address": "14 Rue Laennec"}, "geometry": {"type": "Point", "coordinates": [-1.5475375347831832, 47.21186451288579]}}, {"type": "Feature", "properties": {"id": "56f07cc7-1798-49d6-8626-2be837d03b77", "name": "La Fabrik \u00e0 Jeux", "category": "restaurant", "confidence": 0.9859410355265563, "address": "1B Quai Turenne"}, "geometry": {"type": "Point", "coordinates": [-1.55357016, 47.21322551]}}, {"type": "Feature", "properties": {"id": "852f752c-cc40-4eba-8989-ca901a2a6e9f", "name": "Gueule de Joie - Cave sans alcool", "category": "retail", "confidence": 0.9388740675067667, "address": "4 Rue Suffren"}, "geometry": {"type": "Point", "coordinates": [-1.56088015, 47.21300731]}}, {"type": "Feature", "properties": {"id": "16ba23a2-571f-44a4-a3d2-0ff5fe0bf904", "name": "Ultramarina", "category": "travel_services", "confidence": 0.9388740675067667, "address": "2T Rue des Olivettes"}, "geometry": {"type": "Point", "coordinates": [-1.55020446, 47.21220999]}}, {"type": "Feature", "properties": {"id": "9a499e6a-8632-4869-bf1e-6c5930d367a7", "name": "Moneytrans", "category": "currency_exchange", "confidence": 0.9388740675067667, "address": "11 Rue Kerv\u00e9gan"}, "geometry": {"type": "Point", "coordinates": [-1.55532221, 47.21297794]}}, {"type": "Feature", "properties": {"id": "82b77b54-7a17-4bb9-acaa-12469d172574", "name": "Ashoka", "category": "interior_design", "confidence": 0.77, "address": "9 rue Scribe"}, "geometry": {"type": "Point", "coordinates": [-1.5612569394115408, 47.214042941313245]}}, {"type": "Feature", "properties": {"id": "6e7396c2-d9e7-47e7-8f4c-c0a27a2fbfed", "name": "Mati\u00e8re Noire", "category": "software_development", "confidence": 0.9388740675067667, "address": "39 Rue des Olivettes"}, "geometry": {"type": "Point", "coordinates": [-1.54905574, 47.2104172]}}, {"type": "Feature", "properties": {"id": "9723112b-d88d-4aa1-83f9-dc4eed77396c", "name": "Pole Competences Culturelles Pol'n", "category": "community_services_non_profits", "confidence": 0.9388740675067667, "address": "11 Rue des Olivettes"}, "geometry": {"type": "Point", "coordinates": [-1.55000134, 47.21214219]}}, {"type": "Feature", "properties": {"id": "b9ff57c6-a525-4b6e-b5cf-627e601a29f4", "name": "Ridescope", "category": "travel_company", "confidence": 0.9388740675067667, "address": "21 Rue Racine"}, "geometry": {"type": "Point", "coordinates": [-1.56508288, 47.21419788]}}, {"type": "Feature", "properties": {"id": "efcc1816-86e7-41c2-918d-68bad6da2684", "name": "Boutique Aigle Nantes", "category": "clothing_store", "confidence": 0.9388740675067667, "address": "3 Rue Contrescarpe"}, "geometry": {"type": "Point", "coordinates": [-1.56150183, 47.21336246]}}, {"type": "Feature", "properties": {"id": "e9a48dfb-b4d3-4186-a91d-3a92ec592b75", "name": "L'\u00c9cureuil", "category": "cafe", "confidence": 0.9388740675067667, "address": "8 Rue Julien Videment"}, "geometry": {"type": "Point", "coordinates": [-1.564603, 47.2074065]}}, {"type": "Feature", "properties": {"id": "2a70a7b7-6af9-496e-9332-be70e4fababf", "name": "Vv Clean Privilege", "category": "home_cleaning", "confidence": 0.9388740675067667, "address": "3 Place du Bon Pasteur"}, "geometry": {"type": "Point", "coordinates": [-1.55868006, 47.21558623]}}, {"type": "Feature", "properties": {"id": "e6f2c67a-0073-46db-bfbf-dbfbbe715213", "name": "T\u00e9l\u00e9thon Loire-Atlantique Est - 44", "category": "damage_restoration", "confidence": 0.9367283950617284, "address": "12 All\u00e9e Baco"}, "geometry": {"type": "Point", "coordinates": [-1.54902, 47.21409]}}, {"type": "Feature", "properties": {"id": "065f08e0-b686-4bbf-bb6d-24d3a482cfe5", "name": "Riad Coiff", "category": "beauty_and_spa", "confidence": 0.9388740675067667, "address": "14 Quai de la Fosse"}, "geometry": {"type": "Point", "coordinates": [-1.56057732, 47.21141701]}}, {"type": "Feature", "properties": {"id": "05bb510e-ba98-47b4-902e-19c29f3a69a7", "name": "Five Pizza Original", "category": "pizza_restaurant", "confidence": 0.9388740675067667, "address": "20 Rue des Petites \u00c9curies"}, "geometry": {"type": "Point", "coordinates": [-1.55233319, 47.21538716]}}, {"type": "Feature", "properties": {"id": "195dadf3-315e-4c74-8c40-91b005ce6de0", "name": "Manfield", "category": "clothing_store", "confidence": 0.9388740675067667, "address": "11 Rue Cr\u00e9billon"}, "geometry": {"type": "Point", "coordinates": [-1.56006942, 47.21384422]}}, {"type": "Feature", "properties": {"id": "2d4dfe5b-3138-4a9a-ab09-99fe4a3ee477", "name": "L'Entre 2 Verres", "category": "fast_food_restaurant", "confidence": 0.9388740675067667, "address": "3 Rue Rameau"}, "geometry": {"type": "Point", "coordinates": [-1.5608059, 47.21315353]}}, {"type": "Feature", "properties": {"id": "c5d23ad4-f8ea-4a0b-b910-3bd3e53f3a37", "name": "La Beaut\u00e9 d'Eb\u00e8ne", "category": "beauty_salon", "confidence": 0.9367283950617284, "address": "13 All\u00e9e Duguay-Trouin"}, "geometry": {"type": "Point", "coordinates": [-1.556258, 47.212883]}}, {"type": "Feature", "properties": {"id": "32ab2430-64f2-491a-8e21-ce43d81465d9", "name": "Doucet Philippe", "category": "legal_services", "confidence": 0.77, "address": "2 quai de Tourville"}, "geometry": {"type": "Point", "coordinates": [-1.5565823424655394, 47.20964525464137]}}, {"type": "Feature", "properties": {"id": "0a8e5c87-7722-442c-9a6a-00f931db8d2b", "name": "Sentez-Vous Sport 44", "category": "sports_club_and_league", "confidence": 0.9657719329850477, "address": "Esplanade des traceurs de coques"}, "geometry": {"type": "Point", "coordinates": [-1.5670323371887, 47.20618762928]}}, {"type": "Feature", "properties": {"id": "81e0b513-7fae-4d48-9ef7-e059eb7d2ddb", "name": "Cabinet Nantes Racine", "category": "real_estate", "confidence": 0.9388740675067667, "address": "19 Rue Racine"}, "geometry": {"type": "Point", "coordinates": [-1.56478506, 47.214066]}}, {"type": "Feature", "properties": {"id": "4cd0826b-fdbf-48e2-bd92-681fbcba04ed", "name": "LCL Banque Priv\u00e9e", "category": "banks", "confidence": 0.77, "address": "4 rue Boileau"}, "geometry": {"type": "Point", "coordinates": [-1.5604524292783726, 47.21444809058573]}}, {"type": "Feature", "properties": {"id": "185e309e-c3be-4795-851b-b8c0d1ecd8ce", "name": "Le Song", "category": "asian_restaurant", "confidence": 0.77, "address": "5 rue Santeuil"}, "geometry": {"type": "Point", "coordinates": [-1.5604431134802739, 47.213322285907275]}}, {"type": "Feature", "properties": {"id": "3b813ff2-f0b9-4760-9702-7eb919c26640", "name": "NANTES", "category": "beauty_salon", "confidence": 0.4, "address": "19 rue des vieilles Douves"}, "geometry": {"type": "Point", "coordinates": [-1.5585375, 47.215527]}}, {"type": "Feature", "properties": {"id": "fbb0eb86-6747-43f7-8139-30963a62ea7e", "name": "La Base", "category": "business", "confidence": 0.9388740675067667, "address": "40 Rue La Tour d'Auvergne"}, "geometry": {"type": "Point", "coordinates": [-1.56034906, 47.20604016]}}, {"type": "Feature", "properties": {"id": "2feb75ca-549d-4919-9077-a75989253844", "name": "Le Transbordeur", "category": "french_restaurant", "confidence": 0.77, "address": "9 Rue Kerv\u00e9gan"}, "geometry": {"type": "Point", "coordinates": [-1.5557596587330473, 47.21269803144414]}}, {"type": "Feature", "properties": {"id": "2f2522ad-13ab-451c-a436-018ec7e24165", "name": "La Contrescarpe", "category": "restaurant", "confidence": 0.9388740675067667, "address": "13 Rue Contrescarpe"}, "geometry": {"type": "Point", "coordinates": [-1.55921826, 47.21546089]}}, {"type": "Feature", "properties": {"id": "6074f5c0-35d9-48fc-98e3-c56d8104b581", "name": "Association des Etudiants en Chirurgie Dentaire", "category": "dentist", "confidence": 0.9367283950617284, "address": "1 Place Alexis Ricordeau"}, "geometry": {"type": "Point", "coordinates": [-1.55412, 47.211935]}}, {"type": "Feature", "properties": {"id": "11275a30-4c5c-4396-af4b-4bb3244fd40f", "name": "Palais de la Bourse", "category": "monument", "confidence": 0.9367283950617284, "address": "place du Commerce"}, "geometry": {"type": "Point", "coordinates": [-1.5584975, 47.2128455]}}, {"type": "Feature", "properties": {"id": "a4f341e6-cfd5-41f5-8b97-40c00659e119", "name": "School Aicom Nantes", "category": "dance_school", "confidence": 0.9388740675067667, "address": "35 Rue La Tour d'Auvergne"}, "geometry": {"type": "Point", "coordinates": [-1.55901172, 47.20602616]}}, {"type": "Feature", "properties": {"id": "67ab41c1-8659-4ed0-b6e7-4378957a35a0", "name": "Dr Alliot Benedetti Esth\u00e9tique", "category": "medical_center", "confidence": 0.9388740675067667, "address": "20 Rue Franklin"}, "geometry": {"type": "Point", "coordinates": [-1.56338117, 47.21479788]}}, {"type": "Feature", "properties": {"id": "3bd3f53e-1836-4b1e-a544-9f25575c8aa8", "name": "DESSANGE", "category": "hair_salon", "confidence": 0.77, "address": "9 Rue De La Paix"}, "geometry": {"type": "Point", "coordinates": [-1.5544260227293825, 47.214613127833076]}}, {"type": "Feature", "properties": {"id": "7da86899-7602-4957-815e-a368a7088c03", "name": "NDJ Skateshop", "category": "skate_shop", "confidence": 0.9388740675067667, "address": "3 All\u00e9e Jean Bart"}, "geometry": {"type": "Point", "coordinates": [-1.55548759, 47.21453161]}}, {"type": "Feature", "properties": {"id": "b1809e23-546b-4fa8-a4ed-d7440c4422b9", "name": "La Droguerie", "category": "shopping", "confidence": 0.9367283950617284, "address": "24 Rue Four\u00e9"}, "geometry": {"type": "Point", "coordinates": [-1.5466899, 47.21256]}}, {"type": "Feature", "properties": {"id": "2ff3c34f-1610-43b4-9de3-b3daa5b42a93", "name": "La Cord\u00e9e", "category": "venue_and_event_space", "confidence": 0.77, "address": "34 rue Four\u00e9"}, "geometry": {"type": "Point", "coordinates": [-1.547035909533072, 47.211850021549644]}}, {"type": "Feature", "properties": {"id": "0221a2af-8fa5-4601-8850-d4536dc3ee8e", "name": "Jeff de Bruges", "category": "chocolatier", "confidence": 0.9915646213159338, "address": "22 Rue Contrescarpe"}, "geometry": {"type": "Point", "coordinates": [-1.5589746, 47.21537934]}}, {"type": "Feature", "properties": {"id": "309920a2-1ee5-4985-b4c7-8327ae8d1a62", "name": "Sparkk", "category": "web_designer", "confidence": 0.9388740675067667, "address": "3 Rue des Cadeniers"}, "geometry": {"type": "Point", "coordinates": [-1.56398589, 47.21126477]}}, {"type": "Feature", "properties": {"id": "04302116-d6d1-41c6-8afd-740ac35f9614", "name": "Petit Casino", "category": "convenience_store", "confidence": 0.862, "address": "21 chauss\u00e9e De La Madeleine"}, "geometry": {"type": "Point", "coordinates": [-1.551179, 47.210858]}}, {"type": "Feature", "properties": {"id": "30e768f0-e723-4459-9652-4a5121f91853", "name": "Rue Pierre-Landais", "category": "accommodation", "confidence": 0.9657719329850477, "address": null}, "geometry": {"type": "Point", "coordinates": [-1.5592622839122638, 47.20572332301231]}}, {"type": "Feature", "properties": {"id": "da97efa4-4816-494b-844b-d4074a080bd3", "name": "Teamservices Nantes", "category": "employment_agencies", "confidence": 0.9367283950617284, "address": "73 Quai de la Fosse"}, "geometry": {"type": "Point", "coordinates": [-1.566417, 47.2095]}}, {"type": "Feature", "properties": {"id": "6ee6eab6-8b8b-4c4d-b6a7-f3e36883b5a6", "name": "Bistro Canaille", "category": "french_restaurant", "confidence": 0.9859410355265563, "address": "8 Rue Racine"}, "geometry": {"type": "Point", "coordinates": [-1.56375649, 47.21379854]}}, {"type": "Feature", "properties": {"id": "f3e5ddc5-aeb1-4ece-bec4-68ef725ea77d", "name": "Aux Merveilleux de Fred", "category": "bakery", "confidence": 0.9859410355265563, "address": "6 Rue Franklin"}, "geometry": {"type": "Point", "coordinates": [-1.56312276, 47.21401399]}}, {"type": "Feature", "properties": {"id": "012f5700-39ab-4654-b141-146b7e629f10", "name": "Caf\u00e9 Landru", "category": "bar", "confidence": 0.9388740675067667, "address": "7 Rue Lekain"}, "geometry": {"type": "Point", "coordinates": [-1.56294768, 47.21465162]}}, {"type": "Feature", "properties": {"id": "2b390720-a346-4415-862c-77168536577a", "name": "Coache Paysage", "category": "professional_services", "confidence": 0.9388740675067667, "address": "22 Rue des Olivettes"}, "geometry": {"type": "Point", "coordinates": [-1.54944161, 47.21084424]}}, {"type": "Feature", "properties": {"id": "fc3d7d8c-353a-42de-b0c2-77b112858fc6", "name": "Halle Alstom", "category": "topic_concert_venue", "confidence": 0.9657719329850477, "address": "14 Rue La Nou\u00eb Bras de Fer"}, "geometry": {"type": "Point", "coordinates": [-1.560045, 47.206673]}}, {"type": "Feature", "properties": {"id": "af9ec1d2-cfc4-4802-b8a9-8676f5e6807e", "name": "Atelier SB", "category": "art_gallery", "confidence": 0.9367283950617284, "address": "8 Rue Marivaux"}, "geometry": {"type": "Point", "coordinates": [-1.564416, 47.213172]}}, {"type": "Feature", "properties": {"id": "0c847ccf-89ee-4462-af1b-f3941f8c2507", "name": "Florence PEPIN Capifrance", "category": "appraisal_services", "confidence": 0.9388740675067667, "address": "6 Place du Bouffay"}, "geometry": {"type": "Point", "coordinates": [-1.5536187, 47.2146803]}}, {"type": "Feature", "properties": {"id": "17694b16-66e4-40fb-9be6-d20168e731db", "name": "La P\u00e2te Folle Pizza", "category": "pizza_restaurant", "confidence": 0.9388740675067667, "address": "15 Rue La Tour d'Auvergne"}, "geometry": {"type": "Point", "coordinates": [-1.55436101, 47.20650113]}}, {"type": "Feature", "properties": {"id": "d21c3fe7-d54e-4a5f-81b9-3cc9489c3754", "name": "Apsara Tatouage", "category": "tattoo_and_piercing", "confidence": 0.9388740675067667, "address": "8 Rue Racine"}, "geometry": {"type": "Point", "coordinates": [-1.56366349, 47.21376096]}}, {"type": "Feature", "properties": {"id": "ce63db26-5352-4b78-81ae-7fb30d4e4ea3", "name": "D\u00e9licatessaine", "category": "boutique", "confidence": 0.9921275445865609, "address": "2 Rue Sourd\u00e9ac"}, "geometry": {"type": "Point", "coordinates": [-1.56391, 47.20712]}}, {"type": "Feature", "properties": {"id": "b5524208-9619-4c89-a499-7b98ebe6c3a5", "name": "Cours Olivier de Clisson", "category": "public_plaza", "confidence": 0.9367283950617284, "address": "cours Olivier de Clisson"}, "geometry": {"type": "Point", "coordinates": [-1.55464, 47.2133]}}, {"type": "Feature", "properties": {"id": "4f956031-7f90-49f2-950c-e923870354bf", "name": "La Maison Arlot Cheng", "category": "bakery", "confidence": 0.77, "address": "36 rue la Noue Bras de Fer"}, "geometry": {"type": "Point", "coordinates": [-1.5632442366782393, 47.20694823535267]}}, {"type": "Feature", "properties": {"id": "c9265140-f3b9-4cd5-9e9a-5f244d2751be", "name": "Morfal", "category": "restaurant", "confidence": 0.9859410355265563, "address": "12 Rue des Vieilles Douves"}, "geometry": {"type": "Point", "coordinates": [-1.55870841, 47.21526085]}}, {"type": "Feature", "properties": {"id": "f60aa0a4-fee5-4d39-8b49-fdf365eb953b", "name": "DOD\u00c9 La boutique atelier", "category": "boutique", "confidence": 0.9388740675067667, "address": "10 Rue Franklin"}, "geometry": {"type": "Point", "coordinates": [-1.56320818, 47.21425704]}}, {"type": "Feature", "properties": {"id": "0e0f0148-fd6b-41c2-8f10-ce58350feb4d", "name": "Sattvic Element", "category": "yoga_studio", "confidence": 0.9388740675067667, "address": "11 Impasse Juton"}, "geometry": {"type": "Point", "coordinates": [-1.55149794, 47.21181951]}}, {"type": "Feature", "properties": {"id": "462e1874-078a-4bbd-8486-cc518b132b64", "name": "as_de_pique_cafe_coiffure", "category": "hair_salon", "confidence": 0.9657719329850477, "address": "37 Rue Four\u00e9"}, "geometry": {"type": "Point", "coordinates": [-1.54823682, 47.21411117]}}, {"type": "Feature", "properties": {"id": "b75c4ae6-cded-4ccf-b1f0-c0c1e6cf3ea6", "name": "S\u00f8strene Grene", "category": "home_goods_store", "confidence": 0.9633244405040601, "address": "12 Rue Santeuil"}, "geometry": {"type": "Point", "coordinates": [-1.56022003, 47.21329483]}}, {"type": "Feature", "properties": {"id": "7a6b780f-2019-4170-bd7f-b3ed0e0d8abe", "name": "C.A.P.S Nantes", "category": "public_and_government_association", "confidence": 0.9367283950617284, "address": "3 Rue du Professeur Yves Boquien"}, "geometry": {"type": "Point", "coordinates": [-1.558234, 47.209964]}}, {"type": "Feature", "properties": {"id": "2c21a0c7-3c71-42d7-81f0-abb793f390c8", "name": "Restaurant le Casablanca", "category": "restaurant", "confidence": 0.9367283950617284, "address": "3 All\u00e9e de l'\u00cele Gloriette"}, "geometry": {"type": "Point", "coordinates": [-1.556702, 47.211213]}}, {"type": "Feature", "properties": {"id": "b5d7c98c-cfef-4edb-aa0e-190e1c2202d8", "name": "Audouin Agencement", "category": "furniture_store", "confidence": 0.9367283950617284, "address": "21 Rue Alain Barbe-Torte"}, "geometry": {"type": "Point", "coordinates": [-1.55728, 47.206996]}}, {"type": "Feature", "properties": {"id": "8c26e5ed-3739-4208-9e80-f4c7ad303ffb", "name": "Ibis Styles Nantes Centre Place Royale", "category": "hotel", "confidence": 0.9915646213159338, "address": "3 Rue du Cou\u00ebdic"}, "geometry": {"type": "Point", "coordinates": [-1.55741102, 47.21420645]}}, {"type": "Feature", "properties": {"id": "94c3ab5d-7de1-491f-9ec2-3674295b32c0", "name": "Ciseaux D'or", "category": "beauty_and_spa", "confidence": 0.9388740675067667, "address": "9 Chauss\u00e9e de la Madeleine"}, "geometry": {"type": "Point", "coordinates": [-1.5520306, 47.21163855]}}, {"type": "Feature", "properties": {"id": "ea2918bc-0a4a-4c89-a186-39e77e04840d", "name": "Conserverie la belle-iloise", "category": "fishmonger", "confidence": 0.9388740675067667, "address": "12 Rue de la Fosse"}, "geometry": {"type": "Point", "coordinates": [-1.55895643, 47.21365626]}}, {"type": "Feature", "properties": {"id": "25a7e1fd-ece3-4ed1-91e3-4a06005f44c5", "name": "Skippair", "category": "travel_services", "confidence": 0.9388740675067667, "address": "35 Rue de l'H\u00e9ronni\u00e8re"}, "geometry": {"type": "Point", "coordinates": [-1.56378178, 47.21081114]}}, {"type": "Feature", "properties": {"id": "42d2e120-cefc-416e-b691-59ab9464a131", "name": "Durand et Fils", "category": "glass_and_mirror_sales_service", "confidence": 0.9367283950617284, "address": "9 Rue Kl\u00e9ber"}, "geometry": {"type": "Point", "coordinates": [-1.56622, 47.21439]}}, {"type": "Feature", "properties": {"id": "fa8f5934-3831-4e17-a251-b39a73303461", "name": "Foudre", "category": "wine_bar", "confidence": 0.9388740675067667, "address": "4B Rue de Saverne"}, "geometry": {"type": "Point", "coordinates": [-1.54623689, 47.21160231]}}, {"type": "Feature", "properties": {"id": "953ad3b0-20cf-4c40-99b1-2109b493c82f", "name": "Hair by rose Nantes", "category": "beauty_and_spa", "confidence": 0.9367283950617284, "address": "17 All\u00e9e Duguay-Trouin"}, "geometry": {"type": "Point", "coordinates": [-1.55713, 47.21264]}}, {"type": "Feature", "properties": {"id": "e0923a98-9c05-4893-8058-bfbde0b1c56e", "name": "Cr\u00eaperie de Broc\u00e9liande", "category": "pancake_house", "confidence": 0.9388740675067667, "address": "3 Rue de Gu\u00e9rande"}, "geometry": {"type": "Point", "coordinates": [-1.55894092, 47.21402018]}}, {"type": "Feature", "properties": {"id": "eb4ce9ca-6004-446a-9db7-87ded5645320", "name": "H\u00f4tel R\u00e9nova", "category": "hotel", "confidence": 0.77, "address": "11 rue Beauregard"}, "geometry": {"type": "Point", "coordinates": [-1.5551296104787697, 47.21489238045919]}}, {"type": "Feature", "properties": {"id": "7f93fd05-37c2-4f33-9106-0db8dd17afc5", "name": "Lcl 50 Otages", "category": "banks", "confidence": 0.77, "address": "2 all\u00e9e de Penthievre"}, "geometry": {"type": "Point", "coordinates": [-1.5558882835629906, 47.21539234271734]}}, {"type": "Feature", "properties": {"id": "b1c8dab2-dbb4-4dc9-9186-8d71b7fdf7ad", "name": "Devernois", "category": "clothing_store", "confidence": 0.9859410355265563, "address": "2 Place Royale"}, "geometry": {"type": "Point", "coordinates": [-1.55820584, 47.21497604]}}, {"type": "Feature", "properties": {"id": "a783d8df-c718-4c34-b1dc-b3bd25ec1399", "name": "Place Delorme", "category": "public_plaza", "confidence": 0.9657719329850477, "address": "place Delorme"}, "geometry": {"type": "Point", "coordinates": [-1.5636700671069355, 47.2149035896657]}}, {"type": "Feature", "properties": {"id": "3c9fe61c-9e80-4118-9d84-77dbd6ed4c2b", "name": "Discal Studio", "category": "music_production", "confidence": 0.9388740675067667, "address": "3B Rue S\u00e9vign\u00e9"}, "geometry": {"type": "Point", "coordinates": [-1.56690158, 47.21524452]}}, {"type": "Feature", "properties": {"id": "b1cb5805-984b-4b7d-9961-f6aefa87bea0", "name": "Kusmi Tea", "category": "tea_room", "confidence": 0.9388740675067667, "address": "3 Place Royale"}, "geometry": {"type": "Point", "coordinates": [-1.55837482, 47.21514473]}}, {"type": "Feature", "properties": {"id": "97d561e7-a2b0-4bd1-8162-fe1bea546963", "name": "Sonia Rykiel CDM", "category": "clothing_store", "confidence": 0.77, "address": "3 rue Boileau"}, "geometry": {"type": "Point", "coordinates": [-1.5605472206017061, 47.21410220204136]}}, {"type": "Feature", "properties": {"id": "cf7a9ab1-e193-4068-8e16-3ec9036de5cb", "name": "Chez les Gar\u00e7ons", "category": "bar", "confidence": 0.9388740675067667, "address": "16 Rue Jean-Jacques Rousseau"}, "geometry": {"type": "Point", "coordinates": [-1.56163257, 47.21305459]}}, {"type": "Feature", "properties": {"id": "264a3e2a-b2f3-4d31-9d8f-957691684c34", "name": "Cartridge World Nantes", "category": "printing_services", "confidence": 0.9388740675067667, "address": "2 Rue Copernic"}, "geometry": {"type": "Point", "coordinates": [-1.56433906, 47.2149776]}}, {"type": "Feature", "properties": {"id": "dd23fb4c-fce1-4aad-9761-6e1c8052e1a4", "name": "Le 4.44 BarLounge", "category": "cocktail_bar", "confidence": 0.9388740675067667, "address": "4 Rue du Cou\u00ebdic"}, "geometry": {"type": "Point", "coordinates": [-1.55697127, 47.21391887]}}, {"type": "Feature", "properties": {"id": "89b2f9e1-2af8-4ba0-97d2-ba29888cb6c4", "name": "Derotronic", "category": "electronics", "confidence": 0.9367283950617284, "address": "46 Quai Magellan"}, "geometry": {"type": "Point", "coordinates": [-1.546957, 47.209716]}}, {"type": "Feature", "properties": {"id": "6b107966-962f-4a68-acd1-450752adcb47", "name": "Urgences Dentaire", "category": "dentist", "confidence": 0.9388740675067667, "address": "1 All\u00e9e Charles Mirallie"}, "geometry": {"type": "Point", "coordinates": [-1.55438229, 47.21150888]}}, {"type": "Feature", "properties": {"id": "b2bec22b-4c6d-4c8b-a0e9-e6977ccc2119", "name": "Soci\u00e9t\u00e9 G\u00e9n\u00e9rale", "category": "financial_service", "confidence": 0.9367283950617284, "address": "Sports Beaulieu, 2 Rue S\u00e9vign\u00e9"}, "geometry": {"type": "Point", "coordinates": [-1.552086, 47.215034]}}, {"type": "Feature", "properties": {"id": "317a2180-b1ce-4a2e-bb29-a4282ff84b7e", "name": "Giorgia - Le Clan des Mamma", "category": "italian_restaurant", "confidence": 0.9388740675067667, "address": "4B Rue du Chapeau Rouge"}, "geometry": {"type": "Point", "coordinates": [-1.5600445, 47.21513239]}}, {"type": "Feature", "properties": {"id": "7ab6e5ce-13bc-48cb-8dee-5367bf69ed45", "name": "La Maison Bergeron", "category": "home_improvement_store", "confidence": 0.9367283950617284, "address": "1 Mail du Front Populaire"}, "geometry": {"type": "Point", "coordinates": [-1.563783, 47.206565]}}, {"type": "Feature", "properties": {"id": "578632d5-75e8-44cb-a7cf-85c0a2af042a", "name": "Papeteries Radigois Pean Successeurs", "category": "business_office_supplies_and_stationery", "confidence": 0.77, "address": "7 place F\u00e9lix Fournier"}, "geometry": {"type": "Point", "coordinates": [-1.5572832106579668, 47.21499429124968]}}, {"type": "Feature", "properties": {"id": "204cd2de-7b5a-4da2-b18c-fcd190ae59f4", "name": "Lesage Catherine", "category": "legal_services", "confidence": 0.77, "address": "4 rue Racine"}, "geometry": {"type": "Point", "coordinates": [-1.5632422952640612, 47.2136518221019]}}, {"type": "Feature", "properties": {"id": "2324a8f1-2167-46a9-beb2-87b3c37ea2cf", "name": "Cabinet d'Avocats Quai des Libert\u00e9s", "category": "lawyer", "confidence": 0.9388740675067667, "address": "7 Quai Andr\u00e9 Rhuys"}, "geometry": {"type": "Point", "coordinates": [-1.55412396, 47.2071541]}}, {"type": "Feature", "properties": {"id": "217f914a-d69c-48ad-b0de-8d45b4e03411", "name": "Place du Commerce", "category": "public_plaza", "confidence": 0.9388740675067667, "address": "10 Place du Commerce"}, "geometry": {"type": "Point", "coordinates": [-1.55792888, 47.2132924]}}, {"type": "Feature", "properties": {"id": "e5ede9a8-a893-4197-a05d-1071713cbf8f", "name": "Elle Meme", "category": "womens_clothing_store", "confidence": 0.9859410355265563, "address": "4 Rue Racine"}, "geometry": {"type": "Point", "coordinates": [-1.56320148, 47.21359078]}}, {"type": "Feature", "properties": {"id": "d3e94598-015b-4609-b931-038d4cf30dd7", "name": "Biogroup Laboratoire Brancas", "category": "laboratory_testing", "confidence": 0.9388740675067667, "address": "4 All\u00e9e Brancas"}, "geometry": {"type": "Point", "coordinates": [-1.55601929, 47.2139904]}}, {"type": "Feature", "properties": {"id": "ddc617a0-1a72-4bd6-842e-45a5a604473e", "name": "Comtesse du Barry", "category": "grocery_store", "confidence": 0.9367283950617284, "address": "20 Rue Franklin"}, "geometry": {"type": "Point", "coordinates": [-1.56295, 47.21362]}}, {"type": "Feature", "properties": {"id": "7d33c0e8-dec5-4c06-92c5-4c9a5695a1f6", "name": "Ren\u00e9 Derhy", "category": "clothing_store", "confidence": 0.77, "address": "5 rue du Calvaire"}, "geometry": {"type": "Point", "coordinates": [-1.5599906170295803, 47.21550056210945]}}, {"type": "Feature", "properties": {"id": "cc21f8ab-693c-45cd-9db8-58ffcc283825", "name": "Acadomia", "category": "tutoring_center", "confidence": 0.9367283950617284, "address": "19 Rue Racine"}, "geometry": {"type": "Point", "coordinates": [-1.5648392, 47.21408878]}}, {"type": "Feature", "properties": {"id": "adb6ef87-f79e-4c89-98d6-2ba47431400d", "name": "Basic-Fit", "category": "gym", "confidence": 0.9915646213159338, "address": "18 Rue du Calvaire"}, "geometry": {"type": "Point", "coordinates": [-1.56151015, 47.21550705]}}, {"type": "Feature", "properties": {"id": "24cc2c6b-17c0-4248-a49a-ca74581ecfe9", "name": "Napapijri", "category": "clothing_store", "confidence": 0.9367283950617284, "address": "10 Rue Franklin"}, "geometry": {"type": "Point", "coordinates": [-1.563114, 47.214226]}}, {"type": "Feature", "properties": {"id": "71622fb1-5eaa-47ae-ba1d-dfc134d43555", "name": "Cr\u00eaperie Mam'Zelle Breizh", "category": "restaurant", "confidence": 0.9657719329850477, "address": "4 Rue du Chapeau Rouge"}, "geometry": {"type": "Point", "coordinates": [-1.559819, 47.215177]}}, {"type": "Feature", "properties": {"id": "96daf1bb-d6bf-438d-a441-fa5598eb02da", "name": "Terre de glisse Nantes", "category": "active_life", "confidence": 0.9657719329850477, "address": "23 Chauss\u00e9e de la Madeleine"}, "geometry": {"type": "Point", "coordinates": [-1.55122, 47.210656]}}, {"type": "Feature", "properties": {"id": "82e526ce-936f-45d9-bf19-b1a59ad78a4d", "name": "Phone Cash", "category": "mobile_phone_store", "confidence": 0.77, "address": "5 place F\u00e9lix Fournier"}, "geometry": {"type": "Point", "coordinates": [-1.5582284787946288, 47.21497172073459]}}, {"type": "Feature", "properties": {"id": "21ca4aae-f88e-483d-82f7-e61d900e7fa2", "name": "Place Paul Emile Ladmirault", "category": "public_plaza", "confidence": 0.9657719329850477, "address": "place Paul Emile Ladmirault"}, "geometry": {"type": "Point", "coordinates": [-1.56398, 47.213703]}}, {"type": "Feature", "properties": {"id": "c96f014c-ec11-40a1-add8-7fd5c68f10e1", "name": "Le Club Philippe Gourt", "category": "clothing_store", "confidence": 0.77, "address": "15 rue Cr\u00e9billon"}, "geometry": {"type": "Point", "coordinates": [-1.5605257507854255, 47.21365336145456]}}, {"type": "Feature", "properties": {"id": "da0f3956-634b-4dd9-8ec6-f223e1964207", "name": "Baudry Alain", "category": "grocery_store", "confidence": 0.9367283950617284, "address": "4 Rue Cassini"}, "geometry": {"type": "Point", "coordinates": [-1.56531, 47.21457]}}, {"type": "Feature", "properties": {"id": "db648533-622d-476f-b916-58494903f0c4", "name": "Hamon Access", "category": "elevator_service", "confidence": 0.9388740675067667, "address": "4 Rue Urvoy de Saint-Bedan"}, "geometry": {"type": "Point", "coordinates": [-1.56611855, 47.21322697]}}, {"type": "Feature", "properties": {"id": "16b22418-7b08-4591-a6ab-9799dc45317c", "name": "Easywork Mercure Nantes Centre", "category": "hotel", "confidence": 0.9388740675067667, "address": "4 Rue du Cou\u00ebdic"}, "geometry": {"type": "Point", "coordinates": [-1.55676045, 47.21400784]}}, {"type": "Feature", "properties": {"id": "6151cc83-6b86-4f50-afdc-705ec31d181a", "name": "Pont Anne-de-Bretagne", "category": "bridge", "confidence": 0.9859410355265563, "address": "Pont Anne de Bretagne"}, "geometry": {"type": "Point", "coordinates": [-1.56584468, 47.20825097]}}, {"type": "Feature", "properties": {"id": "9b4cd5f0-9bfe-4814-b140-384a01e3a05d", "name": "la Cimade", "category": "community_services_non_profits", "confidence": 0.9388740675067667, "address": "33 Rue Four\u00e9"}, "geometry": {"type": "Point", "coordinates": [-1.54675048, 47.21126847]}}, {"type": "Feature", "properties": {"id": "b0affcaf-93f8-4c5e-88e6-d47eb221ee2e", "name": "studio YUTZ", "category": "contractor", "confidence": 0.9388740675067667, "address": "26 Rue des Olivettes"}, "geometry": {"type": "Point", "coordinates": [-1.54936642, 47.21022902]}}, {"type": "Feature", "properties": {"id": "92c30eac-6661-4217-afd8-f0f730aa3d95", "name": "Les Machines de l'\u00cele", "category": "amusement_park", "confidence": 0.9859410355265563, "address": "5 Boulevard L\u00e9on Bureau"}, "geometry": {"type": "Point", "coordinates": [-1.56441892, 47.20623211]}}, {"type": "Feature", "properties": {"id": "28254b9d-23b2-4f4f-9205-a2212b4fdadc", "name": "Mgeffray Immobilier", "category": "property_management", "confidence": 0.77, "address": "16 rue Racine"}, "geometry": {"type": "Point", "coordinates": [-1.5643283853682153, 47.21401174837976]}}, {"type": "Feature", "properties": {"id": "37aa7df4-6aa6-453c-92c6-e26b1f4bcff0", "name": "We Are Motion", "category": "graphic_designer", "confidence": 0.9388740675067667, "address": "10 Rue Michel Columb"}, "geometry": {"type": "Point", "coordinates": [-1.55358674, 47.20648365]}}, {"type": "Feature", "properties": {"id": "a40aa349-469f-429e-ba8b-def4042d3a3d", "name": "La Taverne Royale", "category": "french_restaurant", "confidence": 0.9388740675067667, "address": "1 Place Royale"}, "geometry": {"type": "Point", "coordinates": [-1.5579584, 47.21455051]}}, {"type": "Feature", "properties": {"id": "63a38d94-85be-4071-ab33-6b8916c71be7", "name": "Festival Petits et Grands", "category": "arts_and_entertainment", "confidence": 0.9388740675067667, "address": "9 Rue des Olivettes"}, "geometry": {"type": "Point", "coordinates": [-1.55011246, 47.21239127]}}, {"type": "Feature", "properties": {"id": "e23371fc-27eb-416c-8451-8fe6100743dc", "name": "Humane", "category": "home_health_care", "confidence": 0.9388740675067667, "address": "2 Place de la R\u00e9publique"}, "geometry": {"type": "Point", "coordinates": [-1.55496324, 47.20564429]}}, {"type": "Feature", "properties": {"id": "5cbcd5c3-1bf4-4912-82e3-e2394848fe8d", "name": "Virtual Room Nantes", "category": "escape_rooms", "confidence": 0.9657719329850477, "address": "14 Rue du Chapeau Rouge"}, "geometry": {"type": "Point", "coordinates": [-1.56154452, 47.21500335]}}, {"type": "Feature", "properties": {"id": "c7f62d6f-6bc7-4ab9-9714-5e4593f41ecc", "name": "LCL", "category": "banks", "confidence": 0.9915646213159338, "address": "4 Rue Boileau"}, "geometry": {"type": "Point", "coordinates": [-1.56054031, 47.21466729]}}, {"type": "Feature", "properties": {"id": "07dbefa5-37fc-4c63-8af6-a1702bad8b3c", "name": "Chez June", "category": "yoga_studio", "confidence": 0.9921275445865609, "address": "7 Rue des Cadeniers"}, "geometry": {"type": "Point", "coordinates": [-1.56456, 47.21163]}}, {"type": "Feature", "properties": {"id": "fc69377d-6176-4908-b989-a39085637d07", "name": "L'Atelier F - Coiffeur Nantes", "category": "hair_salon", "confidence": 0.77, "address": "13 Rue Saint-Nicolas"}, "geometry": {"type": "Point", "coordinates": [-1.5571669570253583, 47.214891338619715]}}, {"type": "Feature", "properties": {"id": "ac77bd97-a9de-423e-b519-3c3d610efd7d", "name": "Ekyog", "category": "clothing_store", "confidence": 0.9854475308641976, "address": "5 Rue Boileau"}, "geometry": {"type": "Point", "coordinates": [-1.560657, 47.214544]}}, {"type": "Feature", "properties": {"id": "6c063029-ef14-4b1d-8a5c-3aa2b67fe3db", "name": "Optik Budget Nantes", "category": "eyewear_and_optician", "confidence": 0.9764705882352941, "address": "15 Rue de la Marne"}, "geometry": {"type": "Point", "coordinates": [-1.55401, 47.21573]}}, {"type": "Feature", "properties": {"id": "0c0264af-b3b7-4dd7-b58a-2388e00b1928", "name": "M\u00e8tre \u00e0 ruban", "category": "art_museum", "confidence": 0.77, "address": "Rue de la Nou\u00eb-Bras-de-Fer"}, "geometry": {"type": "Point", "coordinates": [-1.5623571743144489, 47.20702235716715]}}, {"type": "Feature", "properties": {"id": "e2cf62a9-a33b-4d2a-8f1e-cdef6cdebe06", "name": "Adexia", "category": "real_estate_agent", "confidence": 0.9388740675067667, "address": "29 Rue La Nou\u00eb Bras de Fer"}, "geometry": {"type": "Point", "coordinates": [-1.56273238, 47.20694124]}}, {"type": "Feature", "properties": {"id": "ec0f4271-ecd7-4a24-97d8-77f1557e14c6", "name": "ASSU 2000 Nantes Bart", "category": "insurance_agency", "confidence": 0.9859410355265563, "address": "2 All\u00e9e Jean Bart"}, "geometry": {"type": "Point", "coordinates": [-1.55530426, 47.21438324]}}, {"type": "Feature", "properties": {"id": "029185a7-60cb-4cfc-9e58-b0c3c05e6247", "name": "Fornelli", "category": "pizza_restaurant", "confidence": 0.9388740675067667, "address": "15 Rue La Nou\u00eb Bras de Fer"}, "geometry": {"type": "Point", "coordinates": [-1.55940838, 47.20712438]}}, {"type": "Feature", "properties": {"id": "5892b2b1-0abd-48e5-a402-e6a0e3a5a04f", "name": "Trajectoires Cycles Nantes", "category": "bicycle_shop", "confidence": 0.9657719329850477, "address": "27 Chauss\u00e9e de la Madeleine"}, "geometry": {"type": "Point", "coordinates": [-1.551046, 47.210502]}}, {"type": "Feature", "properties": {"id": "b9a02f2b-f5a1-4157-9ae6-3d9702ddb4a5", "name": "Place Jean V", "category": "public_plaza", "confidence": 0.9388740675067667, "address": ""}, "geometry": {"type": "Point", "coordinates": [-1.56550137, 47.21215548]}}, {"type": "Feature", "properties": {"id": "689a66ee-2648-429a-a980-3a57f9d07705", "name": "L\u00e9o Lagrange Pool", "category": "swimming_pool", "confidence": 0.9388740675067667, "address": "All. de l'\u00cele Gloriette"}, "geometry": {"type": "Point", "coordinates": [-1.55991817, 47.20986838]}}, {"type": "Feature", "properties": {"id": "0e21d6ea-df97-423d-b88d-e542fc320ed9", "name": "Agence LEM", "category": "marketing_agency", "confidence": 0.9388740675067667, "address": "6 All\u00e9e Duguay-Trouin"}, "geometry": {"type": "Point", "coordinates": [-1.55509529, 47.21338017]}}, {"type": "Feature", "properties": {"id": "2f0bdbc5-9c14-40eb-9532-521dd541a125", "name": "ADMR Maison de Services de Nantes", "category": "retirement_home", "confidence": 0.9367283950617284, "address": "52 Quai Magellan"}, "geometry": {"type": "Point", "coordinates": [-1.547611, 47.209436]}}, {"type": "Feature", "properties": {"id": "6373cb0c-826c-4540-a723-e6af3b1fe854", "name": "Seven Notaires Nantes", "category": "notary_public", "confidence": 0.9388740675067667, "address": "2 Rue Camille Berruyer"}, "geometry": {"type": "Point", "coordinates": [-1.56357698, 47.21535899]}}, {"type": "Feature", "properties": {"id": "69dbb1c3-2851-4f54-baaa-04fa4b0edeb9", "name": "Olivia SALIOT", "category": "naturopathic_holistic", "confidence": 0.9388740675067667, "address": "1 Rue Duvoisin"}, "geometry": {"type": "Point", "coordinates": [-1.55701137, 47.21475323]}}, {"type": "Feature", "properties": {"id": "9bbdea8b-c42d-4e13-b978-e6793d9a0447", "name": "L\u00e0 - Cantine Fermi\u00e8re", "category": "french_restaurant", "confidence": 0.77, "address": "10 rue de Mayence"}, "geometry": {"type": "Point", "coordinates": [-1.5460265140159026, 47.21215949678795]}}, {"type": "Feature", "properties": {"id": "1f7f6cc1-a81b-4e80-8312-4351375c8163", "name": "Lib\u00c9Rez Votre Ap\u00c9Ro !", "category": "escape_rooms", "confidence": 0.9918101462025052, "address": "37 Rue de Rieux"}, "geometry": {"type": "Point", "coordinates": [-1.54669074, 47.21025446]}}, {"type": "Feature", "properties": {"id": "759d8c8a-509b-4dfc-b222-a533f722e243", "name": "Bureau d'\u00e9tudes Akongo", "category": "elementary_school", "confidence": 0.9657719329850477, "address": "40 Rue La Tour d'Auvergne"}, "geometry": {"type": "Point", "coordinates": [-1.56031, 47.206134]}}, {"type": "Feature", "properties": {"id": "98a59b51-12ca-447c-8928-4bb10b67abdc", "name": "The Universe Des Langues", "category": "language_school", "confidence": 0.9388740675067667, "address": "1 Rue Julien Videment"}, "geometry": {"type": "Point", "coordinates": [-1.56410279, 47.20779695]}}, {"type": "Feature", "properties": {"id": "b98ecb21-4b2c-44eb-8772-d0b806b402ce", "name": "McDonald's", "category": "fast_food_restaurant", "confidence": 0.9988698001759457, "address": "3 Rue de Gorges"}, "geometry": {"type": "Point", "coordinates": [-1.55794667, 47.21361336]}}, {"type": "Feature", "properties": {"id": "2eda2ccb-12fa-4479-8352-a68dcc284d3c", "name": "Back Bay Nantes", "category": "american_restaurant", "confidence": 0.9764705882352941, "address": "Fr"}, "geometry": {"type": "Point", "coordinates": [-1.5575699, 47.20618]}}, {"type": "Feature", "properties": {"id": "f2bad25b-e385-472e-964e-078e1b5988e3", "name": "Le march\u00e9 de S\u00e9vign\u00e9", "category": "accommodation", "confidence": 0.9367283950617284, "address": "3B Rue S\u00e9vign\u00e9"}, "geometry": {"type": "Point", "coordinates": [-1.567026, 47.215153]}}, {"type": "Feature", "properties": {"id": "d2140029-b223-4347-85cf-7841f6bdbf45", "name": "Proman", "category": "employment_agencies", "confidence": 0.77, "address": "5 rue du Mar\u00e9chal de Lattre de Tassigny"}, "geometry": {"type": "Point", "coordinates": [-1.5607365922382617, 47.211776878247996]}}, {"type": "Feature", "properties": {"id": "bbc270cf-c0c2-4f7d-8e40-80a9136d3375", "name": "EFS", "category": "community_services_non_profits", "confidence": 0.9921275445865609, "address": "34 Boulevard Jean Monnet"},