{"type": "FeatureCollection", "features": [{"type": "Feature", "properties": {"id": "b42424e0-5a4c-40e4-8837-4b3b7d8f782a", "name": "Restaurant Oceania - Nantes Aeroport", "category": "restaurant", "confidence": 0.9367283950617284, "address": "A\u00e9roport Nantes Atlantique"}, "geometry": {"type": "Point", "coordinates": [-1.596626, 47.158775]}}, {"type": "Feature", "properties": {"id": "100c29b4-4326-4570-af6e-0c3a184e9fd3", "name": "Bye Food", "category": "restaurant", "confidence": 0.77, "address": "39 rue de la Ferme du Ru"}, "geometry": {"type": "Point", "coordinates": [-1.589702, 47.214968]}}, {"type": "Feature", "properties": {"id": "4f645b35-69e1-4c59-b119-a920a7e6f6c2", "name": "Bar Restaurant la Verdure", "category": "restaurant", "confidence": 0.77, "address": "82 rue Joseph Tahet"}, "geometry": {"type": "Point", "coordinates": [-1.653750002465072, 47.19574126728484]}}, {"type": "Feature", "properties": {"id": "60772c6d-858f-49cf-aa8b-50757a2bc81e", "name": "Le Paradis du Fruit", "category": "restaurant", "confidence": 0.9859410355265563, "address": "Centre commercial Atlantis"}, "geometry": {"type": "Point", "coordinates": [-1.62998752, 47.22599883]}}, {"type": "Feature", "properties": {"id": "74c9f422-f121-4806-bad2-132b568e78d4", "name": "O Vingt et Un", "category": "restaurant", "confidence": 0.9388740675067667, "address": "1 Place du Cap Sizun"}, "geometry": {"type": "Point", "coordinates": [-1.63848858, 47.2215211]}}], "metadata": {"theme": "places", "total": 5, "bbox": [-1.72, 47.15, -1.42, 47.32], "query_params": {"theme": "places", "xmin": -1.72, "ymin": 47.15, "xmax": -1.42, "ymax": 47.32, "category": "restaurant", "limit": 5}}}