{"type": "FeatureCollection", "features": [{"type": "Feature", "properties": {"id": "cffc5e5e-c53d-4f99-ae25-564064d63050", "name": "Le Petit Setif", "category": "restaurant", "confidence": 0.9367283950617284, "address": "2 Place Ren\u00e9 Bouhier"}, "geometry": {"type": "Point", "coordinates": [-1.570308, 47.20985]}}, {"type": "Feature", "properties": {"id": "6e3397f2-777c-4f1e-973c-05c70d764d1f", "name": "OPA Nantes - Resto bar", "category": "restaurant", "confidence": 0.9657719329850477, "address": "34 Mail des Chantiers"}, "geometry": {"type": "Point", "coordinates": [-1.56912, 47.2046]}}, {"type": "Feature", "properties": {"id": "67d02a06-3b42-49e9-81b4-64b155cb2bc4", "name": "Blue Factory", "category": "restaurant", "confidence": 0.9388740675067667, "address": "Le Caboulot, 45 Rue La Tour d'Auvergne"}, "geometry": {"type": "Point", "coordinates": [-1.56066295, 47.20585878]}}, {"type": "Feature", "properties": {"id": "202580b3-25dd-4d98-91ec-d4defb9490d1", "name": "Au Comptoir Ib\u00e9rique", "category": "restaurant", "confidence": 0.77, "address": "3 rue de L\u2019Emery"}, "geometry": {"type": "Point", "coordinates": [-1.5519268193684226, 47.215666524355996]}}, {"type": "Feature", "properties": {"id": "56f07cc7-1798-49d6-8626-2be837d03b77", "name": "La Fabrik \u00e0 Jeux", "category": "restaurant", "confidence": 0.9859410355265563, "address": "1B Quai Turenne"}, "geometry": {"type": "Point", "coordinates": [-1.55357016, 47.21322551]}}, {"type": "Feature", "properties": {"id": "2f2522ad-13ab-451c-a436-018ec7e24165", "name": "La Contrescarpe", "category": "restaurant", "confidence": 0.9388740675067667, "address": "13 Rue Contrescarpe"}, "geometry": {"type": "Point", "coordinates": [-1.55921826, 47.21546089]}}, {"type": "Feature", "properties": {"id": "c9265140-f3b9-4cd5-9e9a-5f244d2751be", "name": "Morfal", "category": "restaurant", "confidence": 0.9859410355265563, "address": "12 Rue des Vieilles Douves"}, "geometry": {"type": "Point", "coordinates": [-1.55870841, 47.21526085]}}, {"type": "Feature", "properties": {"id": "2c21a0c7-3c71-42d7-81f0-abb793f390c8", "name": "Restaurant le Casablanca", "category": "restaurant", "confidence": 0.9367283950617284, "address": "3 All\u00e9e de l'\u00cele Gloriette"}, "geometry": {"type": "Point", "coordinates": [-1.556702, 47.211213]}}, {"type": "Feature", "properties": {"id": "71622fb1-5eaa-47ae-ba1d-dfc134d43555", "name": "Cr\u00eaperie Mam'Zelle Breizh", "category": "restaurant", "confidence": 0.9657719329850477, "address": "4 Rue du Chapeau Rouge"}, "geometry": {"type": "Point", "coordinates": [-1.559819, 47.215177]}}, {"type": "Feature", "properties": {"id": "b7f35eee-d5a6-447e-bcbc-630a4e558262", "name": "O'ZAC RH", "category": "restaurant", "confidence": 0.9388740675067667, "address": "1 Rue de la Brasserie"}, "geometry": {"type": "Point", "coordinates": [-1.57177497, 47.20916097]}}, {"type": "Feature", "properties": {"id": "52f2cdbb-b9ea-44f1-8b28-081220438538", "name": "Restaurant Associatif Faire", "category": "restaurant", "confidence": 0.9388740675067667, "address": "105 Boulevard de la Prairie au Duc"}, "geometry": {"type": "Point", "coordinates": [-1.56836291, 47.20374337]}}, {"type": "Feature", "properties": {"id": "cd4dd9b6-8b2d-4b0d-812e-9d73ec4e9281", "name": "Broussaille Restaurant", "category": "restaurant", "confidence": 0.9388740675067667, "address": "8 Rue Magdeleine"}, "geometry": {"type": "Point", "coordinates": [-1.56839615, 47.20431066]}}, {"type": "Feature", "properties": {"id": "6dbe63c9-f2dc-41d7-b616-1108657119c0", "name": "Eita", "category": "restaurant", "confidence": 0.77, "address": "15 rue la Noue Bras de Fer"}, "geometry": {"type": "Point", "coordinates": [-1.559405, 47.207121]}}, {"type": "Feature", "properties": {"id": "b8b1ce15-b507-4391-bb85-7fd3a8760bab", "name": "Le Hangar \u00e0 Bananes", "category": "restaurant", "confidence": 0.9388740675067667, "address": "21 Quai des Antilles"}, "geometry": {"type": "Point", "coordinates": [-1.57306869, 47.20086198]}}, {"type": "Feature", "properties": {"id": "65460a37-60b3-4e95-9da2-1d62a5ae5b48", "name": "Peter Mc Cool - Irish Pub - Graslin", "category": "restaurant", "confidence": 0.9859410355265563, "address": "22 Rue Scribe"}, "geometry": {"type": "Point", "coordinates": [-1.5627516, 47.21398656]}}, {"type": "Feature", "properties": {"id": "738c403e-6544-4407-8ecf-f4eac28afd2f", "name": "Ticoon", "category": "restaurant", "confidence": 0.9367283950617284, "address": "6 All\u00e9e Brancas"}, "geometry": {"type": "Point", "coordinates": [-1.556359, 47.213832]}}, {"type": "Feature", "properties": {"id": "632c3a5b-0bc9-474e-9331-d03cbd502cea", "name": "Restaurant La Poissonnerie", "category": "restaurant", "confidence": 0.9367283950617284, "address": "4 Rue L\u00e9on Ma\u00eetre"}, "geometry": {"type": "Point", "coordinates": [-1.553169, 47.213929]}}, {"type": "Feature", "properties": {"id": "3e0452af-f742-4e4c-98f5-1a1011bde9e3", "name": "Gadjaks", "category": "restaurant", "confidence": 0.9388740675067667, "address": "9 Chauss\u00e9e de la Madeleine"}, "geometry": {"type": "Point", "coordinates": [-1.55195703, 47.21152884]}}, {"type": "Feature", "properties": {"id": "43fd5e3a-8a3e-407a-8707-6e41e8279a0e", "name": "A la bonne tartine", "category": "restaurant", "confidence": 0.9657719329850477, "address": "Place Bouffay"}, "geometry": {"type": "Point", "coordinates": [-1.55283, 47.21457]}}, {"type": "Feature", "properties": {"id": "7e05c67a-74e3-4f38-bf05-f8ba967f7afc", "name": "Myrtil", "category": "restaurant", "confidence": 0.9388740675067667, "address": "1 All\u00e9e de la Maison Rouge"}, "geometry": {"type": "Point", "coordinates": [-1.55059433, 47.21281016]}}, {"type": "Feature", "properties": {"id": "ddcd6526-2339-4a41-b682-e0ae55015966", "name": "La Prison du Bouffay", "category": "restaurant", "confidence": 0.77, "address": "5 place du Bouffay"}, "geometry": {"type": "Point", "coordinates": [-1.5535633876533552, 47.214966736475915]}}, {"type": "Feature", "properties": {"id": "2c849159-a8f7-4d67-8a1f-edc870feaa96", "name": "Mashup Nantes", "category": "restaurant", "confidence": 0.9388740675067667, "address": "63 Boulevard de la Prairie au Duc"}, "geometry": {"type": "Point", "coordinates": [-1.56387239, 47.2042388]}}, {"type": "Feature", "properties": {"id": "292122b2-0656-41d4-bef4-7375380ee040", "name": "MB caf\u00e9", "category": "restaurant", "confidence": 0.9657719329850477, "address": "5 Rue Lamorici\u00e8re"}, "geometry": {"type": "Point", "coordinates": [-1.57094, 47.21063]}}, {"type": "Feature", "properties": {"id": "6673afc0-c68f-433d-9c09-b3de1da68c53", "name": "Ora", "category": "restaurant", "confidence": 0.9657719329850477, "address": "7 Rue Magdeleine"}, "geometry": {"type": "Point", "coordinates": [-1.568077, 47.204178]}}, {"type": "Feature", "properties": {"id": "24bfc46c-83b4-440a-a1ae-772ecda995f6", "name": "So Fake", "category": "restaurant", "confidence": 0.9367283950617284, "address": "3 Place Royale"}, "geometry": {"type": "Point", "coordinates": [-1.55737, 47.21334]}}, {"type": "Feature", "properties": {"id": "743aa2f1-8bcb-4ec3-a9e0-3a5a016a5f2b", "name": "Mon p\u2019tit poulet portugais", "category": "restaurant", "confidence": 0.9388740675067667, "address": "24 Rue des Olivettes"}, "geometry": {"type": "Point", "coordinates": [-1.5494314, 47.21067199]}}, {"type": "Feature", "properties": {"id": "3f653824-7ae0-4c1a-90a7-9f004c530a80", "name": "Food\u2019Art", "category": "restaurant", "confidence": 0.9657719329850477, "address": "14 Rue Louis Blanc"}, "geometry": {"type": "Point", "coordinates": [-1.555083, 47.206667]}}, {"type": "Feature", "properties": {"id": "07a1ad38-5914-4ee1-bf24-d74d2c8fd0c8", "name": "La Fraternit\u00e9", "category": "restaurant", "confidence": 0.9367283950617284, "address": "11 Chauss\u00e9e de la Madeleine"}, "geometry": {"type": "Point", "coordinates": [-1.551795, 47.211509]}}, {"type": "Feature", "properties": {"id": "df501b1f-b25f-49d8-ac92-a03a5033d9b2", "name": "Le Mathurin", "category": "restaurant", "confidence": 0.77, "address": "15 Rue Jean Jacques Rousseau"}, "geometry": {"type": "Point", "coordinates": [-1.5616330466198314, 47.21282861189241]}}, {"type": "Feature", "properties": {"id": "69619633-ce4a-4fbb-9fdb-5f7061acd201", "name": "Le P'tit Nicolas", "category": "restaurant", "confidence": 0.9388740675067667, "address": "6 Rue Saint-Nicolas"}, "geometry": {"type": "Point", "coordinates": [-1.55688803, 47.21513996]}}, {"type": "Feature", "properties": {"id": "229be34b-98d9-491f-93f0-c278f890d8fc", "name": "Ruche Nantes Baco H\u00f4tel-Dieu", "category": "restaurant", "confidence": 0.9657719329850477, "address": "7 All\u00e9e de la Maison Rouge"}, "geometry": {"type": "Point", "coordinates": [-1.55159, 47.212666]}}, {"type": "Feature", "properties": {"id": "202dfe06-8c8e-477b-ae6f-ab8551f0c3e1", "name": "Au Bon Vieux Temps", "category": "restaurant", "confidence": 0.9367283950617284, "address": "9 Rue Sainte-Croix"}, "geometry": {"type": "Point", "coordinates": [-1.55379, 47.215511]}}, {"type": "Feature", "properties": {"id": "c96919b2-b10f-42fd-803d-20118fd8e70f", "name": "La Ripaille tacos&burger", "category": "restaurant", "confidence": 0.9657719329850477, "address": "5 Rue de la Clavurerie"}, "geometry": {"type": "Point", "coordinates": [-1.557158, 47.215399]}}, {"type": "Feature", "properties": {"id": "3c0c11ed-aeb5-4f9d-a693-01a4840bee94", "name": "Naan House Nantes", "category": "restaurant", "confidence": 0.9388740675067667, "address": "46 Quai de la Fosse"}, "geometry": {"type": "Point", "coordinates": [-1.56323874, 47.21038768]}}, {"type": "Feature", "properties": {"id": "7d1b6d89-3d1c-439d-8f8d-4d8f749f08f5", "name": "\u00cele de Sushi", "category": "restaurant", "confidence": 0.9367283950617284, "address": "4 Boulevard Gabriel Guist'Hau"}, "geometry": {"type": "Point", "coordinates": [-1.563975, 47.215406]}}, {"type": "Feature", "properties": {"id": "fda817dd-ab4e-43c5-a131-7da3c79d5734", "name": "Seoul Vitoky", "category": "restaurant", "confidence": 0.77, "address": "4 rue du Bon Secours"}, "geometry": {"type": "Point", "coordinates": [-1.5538815002938866, 47.21370100410677]}}, {"type": "Feature", "properties": {"id": "fc9ba938-e09b-4417-a245-9a8c4509d319", "name": "Tandoori House", "category": "restaurant", "confidence": 0.77, "address": "9 rue de Kervegan"}, "geometry": {"type": "Point", "coordinates": [-1.5548725752134902, 47.21277338859383]}}, {"type": "Feature", "properties": {"id": "7bfb914d-2286-48fc-bebf-c517da399914", "name": "Magnum bistro", "category": "restaurant", "confidence": 0.9388740675067667, "address": "48 Boulevard de la Prairie au Duc"}, "geometry": {"type": "Point", "coordinates": [-1.55991554, 47.20489879]}}, {"type": "Feature", "properties": {"id": "13b10445-8a3e-4afb-b4d7-980eea4ed2e7", "name": "Imagine", "category": "restaurant", "confidence": 0.77, "address": "Rue gresset"}, "geometry": {"type": "Point", "coordinates": [-1.5646614454339987, 47.21189968819648]}}, {"type": "Feature", "properties": {"id": "cb98135a-540a-45bc-bc4e-6a8603e9a57c", "name": "L\u2019art de la saveur by Awa", "category": "restaurant", "confidence": 0.9367283950617284, "address": "10 Rue Evariste Luminais"}, "geometry": {"type": "Point", "coordinates": [-1.57048, 47.21272]}}, {"type": "Feature", "properties": {"id": "9ab7db7d-a3f7-47b4-9d15-96b4d632dc13", "name": "Magmaa Food Hall Nantes", "category": "restaurant", "confidence": 0.9981163336265761, "address": "15 Rue La Nou\u00eb Bras de Fer"}, "geometry": {"type": "Point", "coordinates": [-1.55940796, 47.20713529]}}, {"type": "Feature", "properties": {"id": "69d7ea5e-f4d1-4835-adbe-ae9723c38d68", "name": "la boite \u00e0 sardines", "category": "restaurant", "confidence": 0.77, "address": "5 rue des Petites \u00c9curies"}, "geometry": {"type": "Point", "coordinates": [-1.5524376754923648, 47.215173302765976]}}, {"type": "Feature", "properties": {"id": "da870d3d-fb2b-432d-bb52-4c9985c4fd44", "name": "Restaurant Associatif Badeya", "category": "restaurant", "confidence": 0.9657719329850477, "address": "0 All\u00e9e de la maison rouge"}, "geometry": {"type": "Point", "coordinates": [-1.55155, 47.212628]}}, {"type": "Feature", "properties": {"id": "62c5d56e-7e8a-408b-9b71-f9146a5448c5", "name": "Le Paradis du Fruit", "category": "restaurant", "confidence": 0.9921275445865609, "address": "5 Cours Olivier de Clisson"}, "geometry": {"type": "Point", "coordinates": [-1.554475, 47.213539]}}, {"type": "Feature", "properties": {"id": "34fc3071-4781-4c99-acc7-ae42cbf3ede8", "name": "Restaurant A&B 224", "category": "restaurant", "confidence": 0.9367283950617284, "address": "70 Quai de la Fosse"}, "geometry": {"type": "Point", "coordinates": [-1.56608, 47.20948]}}, {"type": "Feature", "properties": {"id": "eeaee4df-85cf-4afe-9b1b-95356ed3e2a1", "name": "Le Boudoir", "category": "restaurant", "confidence": 0.77, "address": "4 rue Santeuil"}, "geometry": {"type": "Point", "coordinates": [-1.5602748028806117, 47.21282937543581]}}, {"type": "Feature", "properties": {"id": "2417a707-419a-414b-b93c-ac7cc7311885", "name": "Bistrot LAB", "category": "restaurant", "confidence": 0.9388740675067667, "address": "1 Place Catinat"}, "geometry": {"type": "Point", "coordinates": [-1.57281746, 47.21219546]}}, {"type": "Feature", "properties": {"id": "43726033-ba7f-4d77-a607-848857755e3e", "name": "Rossiflor", "category": "restaurant", "confidence": 0.77, "address": "58 boulevard Gustave Roch"}, "geometry": {"type": "Point", "coordinates": [-1.5635613025200217, 47.20078136592599]}}, {"type": "Feature", "properties": {"id": "93f40345-aaa9-4cde-b8a1-22a9b1ec1d32", "name": "LE Barreau.", "category": "restaurant", "confidence": 0.9367283950617284, "address": "8B Quai Fran\u00e7ois Mitterrand"}, "geometry": {"type": "Point", "coordinates": [-1.55855, 47.20771]}}, {"type": "Feature", "properties": {"id": "1c2bfe65-4fd2-465d-952e-f8b5d28889fd", "name": "My Resto", "category": "restaurant", "confidence": 0.77, "address": "15 rue Jean Jacques Rousseau"}, "geometry": {"type": "Point", "coordinates": [-1.5616330466198314, 47.21282861189241]}}, {"type": "Feature", "properties": {"id": "801ea3a7-1ef5-4807-a32d-1d78888116ee", "name": "Le Mistral", "category": "restaurant", "confidence": 0.9388740675067667, "address": "13 Rue des Halles"}, "geometry": {"type": "Point", "coordinates": [-1.55587191, 47.21572015]}}, {"type": "Feature", "properties": {"id": "3fb6997c-a4a6-4ff8-8e8e-89fab2aadd2a", "name": "Le Hoche", "category": "restaurant", "confidence": 0.9367283950617284, "address": "8 Quai Hoche"}, "geometry": {"type": "Point", "coordinates": [-1.551144, 47.206719]}}, {"type": "Feature", "properties": {"id": "6ff1a1ac-32e1-427f-8815-d33c9f90ad3d", "name": "Aux Petits Oignons", "category": "restaurant", "confidence": 0.77, "address": "rue suffren"}, "geometry": {"type": "Point", "coordinates": [-1.560985, 47.213093]}}, {"type": "Feature", "properties": {"id": "d4d79d4c-53ec-4f26-967f-886c2ad09094", "name": "Roza", "category": "restaurant", "confidence": 0.77, "address": "3 place de la Monnaie"}, "geometry": {"type": "Point", "coordinates": [-1.5656131080828193, 47.21317212877829]}}, {"type": "Feature", "properties": {"id": "dcb9b7f3-6442-4bb1-a99a-5dfa8c87599d", "name": "Berjac Viandes", "category": "restaurant", "confidence": 0.9367283950617284, "address": "18 Quai Pr\u00e9sident Wilson"}, "geometry": {"type": "Point", "coordinates": [-1.562348, 47.199549]}}, {"type": "Feature", "properties": {"id": "e2e94374-429e-469b-b82e-b4422f5bee2e", "name": "Fr\u00e8res Toque", "category": "restaurant", "confidence": 0.9764705882352941, "address": "Place Royal"}, "geometry": {"type": "Point", "coordinates": [-1.55854, 47.21426]}}, {"type": "Feature", "properties": {"id": "1d7c0963-c663-4b35-abd5-f6a30bac8033", "name": "LAKA restaurant, bar th\u00e9 et caf\u00e9 Vietnamien", "category": "restaurant", "confidence": 0.9388740675067667, "address": "15 Rue de la Juiverie"}, "geometry": {"type": "Point", "coordinates": [-1.55321974, 47.21550103]}}, {"type": "Feature", "properties": {"id": "53ceba77-3f8d-4f46-b5b3-cee5ae826170", "name": "Cantine Portugaise", "category": "restaurant", "confidence": 0.77, "address": "47 chauss\u00e9e de la Madeleine"}, "geometry": {"type": "Point", "coordinates": [-1.5500641556246018, 47.20928802926449]}}, {"type": "Feature", "properties": {"id": "d4e2a3c6-c712-47d6-bf0f-d036d8fa84a0", "name": "Bistrot de l'Echanson", "category": "restaurant", "confidence": 0.9367283950617284, "address": "4 Rue du Cou\u00ebdic"}, "geometry": {"type": "Point", "coordinates": [-1.557893928288549, 47.21342679426981]}}, {"type": "Feature", "properties": {"id": "d1fcf1cf-0ad2-4443-ae85-042c297d22f8", "name": "Dolce Vita", "category": "restaurant", "confidence": 0.9367283950617284, "address": "2 Rue Gr\u00e9try"}, "geometry": {"type": "Point", "coordinates": [-1.560798, 47.213293]}}, {"type": "Feature", "properties": {"id": "07947e97-4dbe-40c5-98a3-0cdec14a5f48", "name": "Thelma", "category": "restaurant", "confidence": 0.9388740675067667, "address": "1 Rue Montesquieu"}, "geometry": {"type": "Point", "coordinates": [-1.56582496, 47.21302672]}}, {"type": "Feature", "properties": {"id": "cda3be84-008c-49fa-87b1-000bc67e9dfa", "name": "Eita.fr", "category": "restaurant", "confidence": 0.9764705882352941, "address": "Rue la Noue Bras de Fer"}, "geometry": {"type": "Point", "coordinates": [-1.5560245513916, 47.211755952823]}}, {"type": "Feature", "properties": {"id": "9048bcba-ceae-4863-97ef-7a1e5afd5f44", "name": "Vincenzo", "category": "restaurant", "confidence": 0.77, "address": "5 rue de la Juiverie"}, "geometry": {"type": "Point", "coordinates": [-1.5530800689271353, 47.21557032214543]}}, {"type": "Feature", "properties": {"id": "8217d163-ba94-4f10-abf9-435231f4b05a", "name": "Le Tricorne", "category": "restaurant", "confidence": 0.9657719329850477, "address": "22 Quai Ernest Renaud"}, "geometry": {"type": "Point", "coordinates": [-1.575061, 47.204946]}}, {"type": "Feature", "properties": {"id": "bce40659-68c1-452e-81a9-18569daab960", "name": "Noops", "category": "restaurant", "confidence": 0.9367283950617284, "address": "13 Place du Commerce"}, "geometry": {"type": "Point", "coordinates": [-1.55846236, 47.21313565]}}, {"type": "Feature", "properties": {"id": "f8fb408d-27f1-4603-9065-16638ec09dd4", "name": "Little Cesar", "category": "restaurant", "confidence": 0.9367283950617284, "address": "7 Rue Bon Secours"}, "geometry": {"type": "Point", "coordinates": [-1.55367, 47.2138]}}, {"type": "Feature", "properties": {"id": "b995de6c-28ca-42c5-b2ea-acc70ad303bb", "name": "TDL", "category": "restaurant", "confidence": 0.9388740675067667, "address": "21 Quai des Antilles"}, "geometry": {"type": "Point", "coordinates": [-1.57326885, 47.20122101]}}, {"type": "Feature", "properties": {"id": "6ac962dd-deb8-42fe-98be-2311e45b5c81", "name": "French Kiss Nantes Restaurant & Caf\u00e9", "category": "restaurant", "confidence": 0.9918101462025052, "address": "63B Boulevard de la Prairie au Duc"}, "geometry": {"type": "Point", "coordinates": [-1.56486714, 47.20411094]}}, {"type": "Feature", "properties": {"id": "a02f717b-db8b-4dc0-a637-b1cf6709a138", "name": "Prison du Bouffay", "category": "restaurant", "confidence": 0.9388740675067667, "address": "5 Place du Bouffay"}, "geometry": {"type": "Point", "coordinates": [-1.55347583, 47.21491953]}}, {"type": "Feature", "properties": {"id": "c400a184-16ee-4ffb-aa31-5520d77036f9", "name": "Atelier du Bobun", "category": "restaurant", "confidence": 0.9388740675067667, "address": "9 Rue Alain Barbe-Torte"}, "geometry": {"type": "Point", "coordinates": [-1.55658451, 47.20597212]}}, {"type": "Feature", "properties": {"id": "6e590e1b-1018-442c-9b27-712db7031e44", "name": "Charles H", "category": "restaurant", "confidence": 0.77, "address": "1 Place Graslin"}, "geometry": {"type": "Point", "coordinates": [-1.5615994283971741, 47.21305673875412]}}, {"type": "Feature", "properties": {"id": "111a4d69-9157-477f-a6cb-f7c2b61925bd", "name": "Le kilimandjaro 44", "category": "restaurant", "confidence": 0.9388740675067667, "address": "41 Boulevard Gustave Roch"}, "geometry": {"type": "Point", "coordinates": [-1.55278185, 47.20278805]}}, {"type": "Feature", "properties": {"id": "0b417591-8d69-4ee2-8dd7-cc09219c3d6c", "name": "O'Paname", "category": "restaurant", "confidence": 0.9388740675067667, "address": "16 Rue de la B\u00e2clerie"}, "geometry": {"type": "Point", "coordinates": [-1.55236534, 47.21512243]}}, {"type": "Feature", "properties": {"id": "bc2a48a8-f870-4f1a-83c2-160dc4efde42", "name": "Chez Ta Mere Meuris", "category": "restaurant", "confidence": 0.9657719329850477, "address": "11 Rue Meuris"}, "geometry": {"type": "Point", "coordinates": [-1.573908, 47.20831]}}, {"type": "Feature", "properties": {"id": "451e746c-c07c-4fdf-a259-bb39aa2e0c0a", "name": "Restaurant LE MONTE Cristo", "category": "restaurant", "confidence": 0.9367283950617284, "address": "29 Rue La Tour d'Auvergne"}, "geometry": {"type": "Point", "coordinates": [-1.557151, 47.205936]}}, {"type": "Feature", "properties": {"id": "8aef740d-8327-42fe-8809-20a5c038a13e", "name": "Lamiral", "category": "restaurant", "confidence": 0.9388740675067667, "address": "8 Rue Racine"}, "geometry": {"type": "Point", "coordinates": [-1.56365509, 47.21380879]}}, {"type": "Feature", "properties": {"id": "9b49f9a7-570d-44e2-9b3e-e0ce1eb4164e", "name": "Ma Poule", "category": "restaurant", "confidence": 0.77, "address": "30 rue des Petites \u00c9curies"}, "geometry": {"type": "Point", "coordinates": [-1.5522510740797497, 47.21569580263579]}}, {"type": "Feature", "properties": {"id": "89d1155c-4b93-4726-8e79-31562db371d5", "name": "Saveurs de Tunis", "category": "restaurant", "confidence": 0.9367283950617284, "address": "47 Quai de la Fosse"}, "geometry": {"type": "Point", "coordinates": [-1.5633, 47.21037]}}, {"type": "Feature", "properties": {"id": "1eceec30-c67d-4eca-a584-2b355d928182", "name": "Le Chat noir", "category": "restaurant", "confidence": 0.9388740675067667, "address": "13 All\u00e9e Duguay-Trouin"}, "geometry": {"type": "Point", "coordinates": [-1.55633273, 47.21300481]}}, {"type": "Feature", "properties": {"id": "24b77bf5-9c59-4cba-b032-da256c256d34", "name": "Le Bouillon Du Commerce", "category": "restaurant", "confidence": 0.9657719329850477, "address": "1 Place du Commerce"}, "geometry": {"type": "Point", "coordinates": [-1.557424, 47.213472]}}, {"type": "Feature", "properties": {"id": "d755d1a2-ea7d-4e4a-9255-d6ed4c597594", "name": "Restaurant Chicken Plaza", "category": "restaurant", "confidence": 0.9367283950617284, "address": "5 Rue Sainte-Catherine"}, "geometry": {"type": "Point", "coordinates": [-1.556353, 47.214171]}}, {"type": "Feature", "properties": {"id": "f6960123-1eaf-4a71-9690-7ebdf061f4bd", "name": "Kollectif", "category": "restaurant", "confidence": 0.9388740675067667, "address": "1 Rue du Cheval Blanc"}, "geometry": {"type": "Point", "coordinates": [-1.55596578, 47.21701839]}}, {"type": "Feature", "properties": {"id": "841ab415-142d-47e0-920a-3b2ade23d33b", "name": "\u00c9veille tes Papilles", "category": "restaurant", "confidence": 0.9657719329850477, "address": "6 Rue des Carm\u00e9lites"}, "geometry": {"type": "Point", "coordinates": [-1.551726769282515, 47.21643628546848]}}, {"type": "Feature", "properties": {"id": "48ba0c0d-9a72-4b85-8a89-319b69d53c56", "name": "P. Nantes", "category": "restaurant", "confidence": 0.9367283950617284, "address": "Place du pilori"}, "geometry": {"type": "Point", "coordinates": [-1.5531339120795, 47.216071013266]}}, {"type": "Feature", "properties": {"id": "ff4c92b5-39fd-4591-940a-930b4a95d176", "name": "By Mario", "category": "restaurant", "confidence": 0.9367283950617284, "address": "18 Rue La Fayette"}, "geometry": {"type": "Point", "coordinates": [-1.562356, 47.216993]}}, {"type": "Feature", "properties": {"id": "ad59f93e-354a-47b0-9832-46dd1e99fa83", "name": "Restaurant Kim", "category": "restaurant", "confidence": 0.9388740675067667, "address": "4 Rue de la Juiverie"}, "geometry": {"type": "Point", "coordinates": [-1.55285576, 47.21574661]}}, {"type": "Feature", "properties": {"id": "d4efbe8c-d9fa-4a05-a7eb-e6b5a8da85a2", "name": "Entre Amigos", "category": "restaurant", "confidence": 0.77, "address": "10 rue des Trois Croissants"}, "geometry": {"type": "Point", "coordinates": [-1.5558088039375544, 47.216525513238366]}}, {"type": "Feature", "properties": {"id": "3f34ce71-8501-442e-975b-0403a37cfccd", "name": "Le Gandhi", "category": "restaurant", "confidence": 0.77, "address": "4 rue de l'Emery"}, "geometry": {"type": "Point", "coordinates": [-1.5518350471410076, 47.21584315647358]}}, {"type": "Feature", "properties": {"id": "936cbc27-99fd-47cf-bacc-0a1c42d89101", "name": "Huis Clos Bar Nantes", "category": "restaurant", "confidence": 0.9367283950617284, "address": "8 Rue Armand Brossard"}, "geometry": {"type": "Point", "coordinates": [-1.556277, 47.216768]}}, {"type": "Feature", "properties": {"id": "15f44ada-604c-451f-9807-6f11ae4408b9", "name": "La Guitoune Nantes", "category": "restaurant", "confidence": 0.9388740675067667, "address": "8 Rue des Carmes"}, "geometry": {"type": "Point", "coordinates": [-1.55497357, 47.21597378]}}, {"type": "Feature", "properties": {"id": "2465cfcd-fcb9-425e-b08e-900e6360fb9b", "name": "L'Alchimisterie", "category": "restaurant", "confidence": 0.9388740675067667, "address": "6 Rue Cacault"}, "geometry": {"type": "Point", "coordinates": [-1.55780394, 47.21624688]}}, {"type": "Feature", "properties": {"id": "4ceff4e1-34d9-484a-96d6-93cf21928576", "name": "Berliner & CO", "category": "restaurant", "confidence": 0.9367283950617284, "address": "6 Rue de Briord"}, "geometry": {"type": "Point", "coordinates": [-1.5530643, 47.2166324]}}, {"type": "Feature", "properties": {"id": "764872f9-1758-4da1-8349-01118a4f4132", "name": "Chez Fernand", "category": "restaurant", "confidence": 0.9657719329850477, "address": "10 Rue Armand Brossard"}, "geometry": {"type": "Point", "coordinates": [-1.55626, 47.21691]}}, {"type": "Feature", "properties": {"id": "1fbe8576-b372-4a81-9198-291c4f1e8aaa", "name": "La Piscine", "category": "restaurant", "confidence": 0.9859410355265563, "address": "10 Rue Armand Brossard"}, "geometry": {"type": "Point", "coordinates": [-1.55616585, 47.21699837]}}, {"type": "Feature", "properties": {"id": "750be782-8440-4edf-b6f1-af21d00b2e9e", "name": "Le Marny", "category": "restaurant", "confidence": 0.9657719329850477, "address": "1 Rue de la Marne"}, "geometry": {"type": "Point", "coordinates": [-1.553337, 47.216056]}}, {"type": "Feature", "properties": {"id": "0c4536b3-8374-4dbe-b6bf-b80fd76523dc", "name": "Lulu&F\u00e9lix les Saucissiers Ripailleurs", "category": "restaurant", "confidence": 0.9367283950617284, "address": "12 Place du Pilori"}, "geometry": {"type": "Point", "coordinates": [-1.55304, 47.21607]}}, {"type": "Feature", "properties": {"id": "acebc4d1-6643-4453-a737-723391ca9939", "name": "L'Etal Nantes - Poissonnerie/Restaurant", "category": "restaurant", "confidence": 0.9388740675067667, "address": "18 Rue des Carmes"}, "geometry": {"type": "Point", "coordinates": [-1.55512498, 47.21628677]}}, {"type": "Feature", "properties": {"id": "d80fd515-0804-4a77-b583-aa103de1cf6c", "name": "Burger King Nantes", "category": "restaurant", "confidence": 0.9367283950617284, "address": "rue de Strasbourg"}, "geometry": {"type": "Point", "coordinates": [-1.552145969330238, 47.21719601414324]}}, {"type": "Feature", "properties": {"id": "00394ad3-2c81-4fd7-b83f-03693ce5e82d", "name": "La Coquille d'oeuf", "category": "restaurant", "confidence": 0.77, "address": "Rue de Verdun"}, "geometry": {"type": "Point", "coordinates": [-1.5525845066312298, 47.21685082982414]}}], "metadata": {"theme": "places", "total": 99, "bbox": [-1.5752651079188704, 47.19935033637519, -1.5488183112191896, 47.217316559875016], "query_params": {"theme": "places", "center_lon": -1.56204170956903, "center_lat": 47.2083334481251, "radius_m": 1000, "category": "restaurant", "xmin": -1.5752651079188704, "xmax": -1.5488183112191896, "ymin": 47.19935033637519, "ymax": 47.217316559875016}}}