{"type": "FeatureCollection", "features": [{"type": "Feature", "properties": {"id": "ccd1e6dd-3c5b-49bf-b55e-2545f204d2d7", "name": "Schmidt", "category": "home_and_garden", "confidence": 0.9388740675067667, "address": "3 Rue de Strasbourg"}, "geometry": {"type": "Point", "coordinates": [-1.55086226, 47.21541173]}}, {"type": "Feature", "properties": {"id": "70d5c76a-86a1-42dd-8ee5-3241012c65d9", "name": "Domifacile Nantes", "category": "home_health_care", "confidence": 0.9367283950617284, "address": "1 All\u00e9e de la Maison Rouge"}, "geometry": {"type": "Point", "coordinates": [-1.550679, 47.212842]}}, {"type": "Feature", "properties": {"id": "2bf76ec0-fa40-4210-ab0a-a2e9d7a42fbf", "name": "Caf\u00e9 des Expos", "category": "cafe", "confidence": 0.9859410355265563, "address": "14 Avenue Carnot"}, "geometry": {"type": "Point", "coordinates": [-1.54520327, 47.21340639]}}, {"type": "Feature", "properties": {"id": "40c7147b-d01e-4d2a-9c68-7757729f1943", "name": "Positive Company", "category": "professional_services", "confidence": 0.9388740675067667, "address": "3 Rue de la Biscuiterie"}, "geometry": {"type": "Point", "coordinates": [-1.54492007, 47.21510965]}}, {"type": "Feature", "properties": {"id": "1892fd90-dd62-49d3-b2e9-04c82affc403", "name": "Helios", "category": "bank_credit_union", "confidence": 0.9764705882352941, "address": null}, "geometry": {"type": "Point", "coordinates": [-1.54528, 47.21369]}}, {"type": "Feature", "properties": {"id": "917b0a79-2d3b-4ac1-8e3b-e2f5b58b3a7e", "name": "Baco-Lu", "category": "parking", "confidence": 0.9388740675067667, "address": "All. Baco"}, "geometry": {"type": "Point", "coordinates": [-1.54902921, 47.21422698]}}, {"type": "Feature", "properties": {"id": "c9fa030a-3212-4c36-b0b1-a59b3aa9c2e9", "name": "Dekocoon", "category": "interior_design", "confidence": 0.9388740675067667, "address": "42-43 Quai de Malakoff"}, "geometry": {"type": "Point", "coordinates": [-1.5412032, 47.21466388]}}, {"type": "Feature", "properties": {"id": "b05b418d-99ea-45c5-a684-6abc9b764a9d", "name": "H\u00e9ritage Media", "category": "media_news_company", "confidence": 0.9764705882352941, "address": "2 Rue Crucy"}, "geometry": {"type": "Point", "coordinates": [-1.54644, 47.21483]}}, {"type": "Feature", "properties": {"id": "6b00c71b-85e4-4cbf-916d-548dabb14acf", "name": "L'Autre March\u00e9, par Les Ecossolies", "category": "farmers_market", "confidence": 0.9367283950617284, "address": "Esplanade du Carr\u00e9 Feydeau"}, "geometry": {"type": "Point", "coordinates": [-1.5517544746399, 47.214233814603]}}, {"type": "Feature", "properties": {"id": "dcad3d74-fe60-404c-8426-3782ffb63cf6", "name": "La Cite Nantes Events Center", "category": "topic_concert_venue", "confidence": 0.9367283950617284, "address": "5 Rue de Valmy"}, "geometry": {"type": "Point", "coordinates": [-1.547137603962027, 47.21501849658255]}}, {"type": "Feature", "properties": {"id": "a662db3f-8b18-44cd-9f76-6f87e90fb0a7", "name": "Barber 902", "category": "barber", "confidence": 0.9388740675067667, "address": "31 Quai Malakoff"}, "geometry": {"type": "Point", "coordinates": [-1.54097892, 47.21451007]}}, {"type": "Feature", "properties": {"id": "81791a87-af6c-42c9-bf4c-f01fdd233d4b", "name": "CVI Calorifuge", "category": "contractor", "confidence": 0.9388740675067667, "address": "31 Quai Malakoff"}, "geometry": {"type": "Point", "coordinates": [-1.54097097, 47.21451328]}}, {"type": "Feature", "properties": {"id": "29a68977-e8e1-4196-b5fc-7dd463cc60b1", "name": "Popeyes Nantes", "category": "fast_food_restaurant", "confidence": 0.9388740675067667, "address": "19 Parvis Neptune"}, "geometry": {"type": "Point", "coordinates": [-1.55230721, 47.2143122]}}, {"type": "Feature", "properties": {"id": "7aaa2d13-2b88-4007-aeb8-7bfd702d62fe", "name": "ADB Caf\u00e9", "category": "bar", "confidence": 0.77, "address": "3 all\u00e9e du Port Maillard"}, "geometry": {"type": "Point", "coordinates": [-1.55084395171591, 47.215137263970774]}}, {"type": "Feature", "properties": {"id": "75264a93-60cf-43a5-a586-f29d19c42874", "name": "Parking Feydeau", "category": "parking", "confidence": 0.9859410355265563, "address": "Cr Commandant d'Estienne d'Orves"}, "geometry": {"type": "Point", "coordinates": [-1.55233326, 47.21359585]}}, {"type": "Feature", "properties": {"id": "62c0bcb3-9a32-4025-aa40-268b61902e2b", "name": "Inextcom", "category": "corporate_office", "confidence": 0.77, "address": "12 avenue Carnot"}, "geometry": {"type": "Point", "coordinates": [-1.5453359484672546, 47.213605933557524]}}, {"type": "Feature", "properties": {"id": "d903e84a-96da-4702-82d0-43b1f1fd1d2f", "name": "Les Sales Gosses", "category": "brewery", "confidence": 0.77, "address": "15 rue Crucy"}, "geometry": {"type": "Point", "coordinates": [-1.5481491312716393, 47.213953875884435]}}, {"type": "Feature", "properties": {"id": "d818e96d-c932-4821-9ef2-921ec356f388", "name": "Takoma", "category": "advertising_agency", "confidence": 0.77, "address": "8 rue Emile Pehant"}, "geometry": {"type": "Point", "coordinates": [-1.546206830704339, 47.21360890969262]}}, {"type": "Feature", "properties": {"id": "b09ad3f5-da06-42e5-98b9-1c59ac528245", "name": "Air-Pictures", "category": "event_photography", "confidence": 0.9388740675067667, "address": "4 Rue Lef\u00e8vre-Utile"}, "geometry": {"type": "Point", "coordinates": [-1.54442674, 47.21434433]}}, {"type": "Feature", "properties": {"id": "4838eb3a-a4f1-4bb9-b79f-6d8656b32015", "name": "Moda Nantes", "category": "dance_club", "confidence": 0.9388740675067667, "address": "32B Rue Crucy"}, "geometry": {"type": "Point", "coordinates": [-1.55002431, 47.21306007]}}, {"type": "Feature", "properties": {"id": "06f202ee-ebc5-4311-badd-e3fd830dd876", "name": "L'Autre Cantine", "category": "community_services_non_profits", "confidence": 0.9388740675067667, "address": "18 Rue de Cornulier"}, "geometry": {"type": "Point", "coordinates": [-1.54022323, 47.21484247]}}, {"type": "Feature", "properties": {"id": "3fd6da9f-a52f-4ba4-9771-dd4f91cf5656", "name": "Vacouva Coworking Nantes", "category": "event_planning", "confidence": 0.9388740675067667, "address": "46 Quai Malakoff"}, "geometry": {"type": "Point", "coordinates": [-1.54114911, 47.21468992]}}, {"type": "Feature", "properties": {"id": "202580b3-25dd-4d98-91ec-d4defb9490d1", "name": "Au Comptoir Ib\u00e9rique", "category": "restaurant", "confidence": 0.77, "address": "3 rue de L\u2019Emery"}, "geometry": {"type": "Point", "coordinates": [-1.5519268193684226, 47.215666524355996]}}, {"type": "Feature", "properties": {"id": "e6f2c67a-0073-46db-bfbf-dbfbbe715213", "name": "T\u00e9l\u00e9thon Loire-Atlantique Est - 44", "category": "damage_restoration", "confidence": 0.9367283950617284, "address": "12 All\u00e9e Baco"}, "geometry": {"type": "Point", "coordinates": [-1.54902, 47.21409]}}, {"type": "Feature", "properties": {"id": "05bb510e-ba98-47b4-902e-19c29f3a69a7", "name": "Five Pizza Original", "category": "pizza_restaurant", "confidence": 0.9388740675067667, "address": "20 Rue des Petites \u00c9curies"}, "geometry": {"type": "Point", "coordinates": [-1.55233319, 47.21538716]}}, {"type": "Feature", "properties": {"id": "dc54ae5c-e608-497a-addf-e6e03e21b5fa", "name": "La Caravelle", "category": "pizza_restaurant", "confidence": 0.77, "address": "45 quai de Malakoff"}, "geometry": {"type": "Point", "coordinates": [-1.5414014108315757, 47.214854313646256]}}, {"type": "Feature", "properties": {"id": "67fc62f5-a319-4fd4-908d-87e6f0aa8420", "name": "Enterprise", "category": "car_rental_agency", "confidence": 0.9859410355265563, "address": "13 Rue de Cornulier"}, "geometry": {"type": "Point", "coordinates": [-1.54016847, 47.21445448]}}, {"type": "Feature", "properties": {"id": "462e1874-078a-4bbd-8486-cc518b132b64", "name": "as_de_pique_cafe_coiffure", "category": "hair_salon", "confidence": 0.9657719329850477, "address": "37 Rue Four\u00e9"}, "geometry": {"type": "Point", "coordinates": [-1.54823682, 47.21411117]}}, {"type": "Feature", "properties": {"id": "b2bec22b-4c6d-4c8b-a0e9-e6977ccc2119", "name": "Soci\u00e9t\u00e9 G\u00e9n\u00e9rale", "category": "financial_service", "confidence": 0.9367283950617284, "address": "Sports Beaulieu, 2 Rue S\u00e9vign\u00e9"}, "geometry": {"type": "Point", "coordinates": [-1.552086, 47.215034]}}, {"type": "Feature", "properties": {"id": "ccdec07a-1177-4621-9180-f7542298c52f", "name": "Michenaud Services And Co", "category": "musical_instrument_store", "confidence": 0.9918101462025052, "address": "18 All\u00e9e Baco"}, "geometry": {"type": "Point", "coordinates": [-1.55007023, 47.21347165]}}, {"type": "Feature", "properties": {"id": "b8b18325-9ab5-463e-9b3e-a8124a76f881", "name": "Carrelages du Marais", "category": "hardware_store", "confidence": 0.77, "address": "2 rue de Strasbourg"}, "geometry": {"type": "Point", "coordinates": [-1.5505441669203632, 47.2153875697204]}}, {"type": "Feature", "properties": {"id": "2feed9e0-e652-40f3-a181-c81dc1fb6d50", "name": "ASS Security", "category": "home_security", "confidence": 0.9388740675067667, "address": "2 Rue Crucy"}, "geometry": {"type": "Point", "coordinates": [-1.54656532, 47.21478873]}}, {"type": "Feature", "properties": {"id": "fb3c327c-b95f-4ccd-804a-323679a2f203", "name": "KNP Labs", "category": "web_designer", "confidence": 0.9388740675067667, "address": "8Q Rue \u00c9mile P\u00e9hant"}, "geometry": {"type": "Point", "coordinates": [-1.54672365, 47.21325652]}}, {"type": "Feature", "properties": {"id": "5d3f8bf3-261f-4c7c-8eb9-71aec3d886e9", "name": "Epikur", "category": "restaurant", "confidence": 0.9388740675067667, "address": "31 Quai Malakoff"}, "geometry": {"type": "Point", "coordinates": [-1.5414508, 47.21482673]}}, {"type": "Feature", "properties": {"id": "9491ecf8-d69f-4929-aa2a-c53fbf27f66d", "name": "Igloo Nettoyage", "category": "building_supply_store", "confidence": 0.77, "address": "37 rue Crucy"}, "geometry": {"type": "Point", "coordinates": [-1.550146600220429, 47.21288606861761]}}, {"type": "Feature", "properties": {"id": "7e3e7dd2-e1b6-41ed-a94c-fdeb446d8703", "name": "Loisirs Pluriel de Nantes", "category": "town_hall", "confidence": 0.9367283950617284, "address": "3 Rue \u00c9mile P\u00e9hant"}, "geometry": {"type": "Point", "coordinates": [-1.545913, 47.213521]}}, {"type": "Feature", "properties": {"id": "d90e8fdb-fb21-46a7-a3e2-beb22ab899d1", "name": "City One", "category": "topic_concert_venue", "confidence": 0.9367283950617284, "address": "19 Quai Ferdinand Favre"}, "geometry": {"type": "Point", "coordinates": [-1.544295, 47.214838]}}, {"type": "Feature", "properties": {"id": "f86f212d-975f-448c-a3fe-b088bb20a01d", "name": "Irish Pub", "category": "pub", "confidence": 0.9657719329850477, "address": "13 All\u00e9e du Port Maillard"}, "geometry": {"type": "Point", "coordinates": [-1.55250719, 47.21531241]}}, {"type": "Feature", "properties": {"id": "f2bb277c-5581-4b6c-b08d-c53483cd2556", "name": "All\u00e9e du Port-Maillard", "category": "landmark_and_historical_building", "confidence": 0.9657719329850477, "address": null}, "geometry": {"type": "Point", "coordinates": [-1.5518028, 47.214795]}}, {"type": "Feature", "properties": {"id": "b357e375-78fa-4785-bb70-4f49bcdab6c6", "name": "Les Damoiselles", "category": "french_restaurant", "confidence": 0.77, "address": "19 all\u00e9e Baco"}, "geometry": {"type": "Point", "coordinates": [-1.5503454084964285, 47.21332009431343]}}, {"type": "Feature", "properties": {"id": "819e5489-7c09-4053-a59d-76fcc95aa2e0", "name": "Derni\u00e8re Main", "category": "thrift_store", "confidence": 0.9367283950617284, "address": "5 Rue de Strasbourg"}, "geometry": {"type": "Point", "coordinates": [-1.55095, 47.21552]}}, {"type": "Feature", "properties": {"id": "c28a17eb-00f0-430a-9758-f539a0258ada", "name": "Chez Cannelle Nantes", "category": "pancake_house", "confidence": 0.9388740675067667, "address": "4 Rue \u00c9mile Masson"}, "geometry": {"type": "Point", "coordinates": [-1.54665939, 47.21402255]}}, {"type": "Feature", "properties": {"id": "771a871a-43a0-4764-8c60-ad4f2de36ae9", "name": "Palais Des Congr\u00e8s - Festival International des Utopiales", "category": "arts_and_entertainment", "confidence": 0.9388740675067667, "address": "Cit\u00e9 des Congr\u00e8s de Nantes, Rue de Valmy"}, "geometry": {"type": "Point", "coordinates": [-1.54362874, 47.21298713]}}, {"type": "Feature", "properties": {"id": "066e2c5b-8513-49c3-9763-dbfac8777050", "name": "Europcar", "category": "car_rental_agency", "confidence": 0.77, "address": "325 Rue Marcel Paul"}, "geometry": {"type": "Point", "coordinates": [-1.5405051091611075, 47.21543589906644]}}, {"type": "Feature", "properties": {"id": "a16b4d9a-b28a-402c-b8f4-aedd8c93f9e0", "name": "Hexafor", "category": "adult_education", "confidence": 0.77, "address": "325 rue Marcel Paul"}, "geometry": {"type": "Point", "coordinates": [-1.5406244105588274, 47.21536963675715]}}, {"type": "Feature", "properties": {"id": "af155d30-f8cd-4759-b94e-64b98288d671", "name": "Berlitz Nantes - Cours de langues", "category": "language_school", "confidence": 0.9388740675067667, "address": "2 Rue Crucy"}, "geometry": {"type": "Point", "coordinates": [-1.54637674, 47.21489509]}}, {"type": "Feature", "properties": {"id": "2b26ae41-f594-463f-b96b-f4bd375647cf", "name": "Diagamter Nantes Ouest", "category": "diagnostic_services", "confidence": 0.9388740675067667, "address": "2 Rue Crucy"}, "geometry": {"type": "Point", "coordinates": [-1.54645626, 47.21494234]}}, {"type": "Feature", "properties": {"id": "39fd8b68-ae5a-43b2-a23a-ac989d2f150a", "name": "Ets Hognon.M", "category": "roofing", "confidence": 0.9859410355265563, "address": "31 Quai Malakoff"}, "geometry": {"type": "Point", "coordinates": [-1.54100161, 47.21452876]}}, {"type": "Feature", "properties": {"id": "a94889fc-86f3-4295-88c5-4721e6954478", "name": "Live DMA", "category": "community_services_non_profits", "confidence": 0.9388740675067667, "address": "35 Rue Crucy"}, "geometry": {"type": "Point", "coordinates": [-1.55001309, 47.21294163]}}, {"type": "Feature", "properties": {"id": "b8e10eee-a94e-4949-b38b-912ca920b1c1", "name": "Etoile Bleue", "category": "telecommunications", "confidence": 0.77, "address": "7 rue de Valmy"}, "geometry": {"type": "Point", "coordinates": [-1.5442064757161797, 47.21321243564001]}}, {"type": "Feature", "properties": {"id": "05a117fb-b0f4-46a9-aab1-01bfd858a41a", "name": "Euro Meeting Center", "category": "coworking_space", "confidence": 0.77, "address": "21 rue de Cormier"}, "geometry": {"type": "Point", "coordinates": [-1.5404562767006327, 47.214876744633784]}}, {"type": "Feature", "properties": {"id": "396231ac-3392-4ea4-83d2-7287b2791cbf", "name": "Bamaco", "category": "industrial_equipment", "confidence": 0.9388740675067667, "address": "31 Quai Malakoff"}, "geometry": {"type": "Point", "coordinates": [-1.54090781, 47.21454127]}}, {"type": "Feature", "properties": {"id": "aa50b922-eac4-4be6-b5ff-9bb67336cff3", "name": "Le Spot Nantes Congr\u00e8s By Multiburo", "category": "professional_services", "confidence": 0.9367283950617284, "address": "12 Avenue Carnot"}, "geometry": {"type": "Point", "coordinates": [-1.54528, 47.21369]}}, {"type": "Feature", "properties": {"id": "515f4b25-4355-4894-b35b-ff837b24eed2", "name": "Basic-Fit", "category": "gym", "confidence": 0.9915646213159338, "address": "1 Cour Commandant d\u2019Estienne d\u2019Orves - Carr\u00e9 Feydeau"}, "geometry": {"type": "Point", "coordinates": [-1.55253635, 47.21427675]}}, {"type": "Feature", "properties": {"id": "ea6192ff-d744-48ec-9ceb-b08f5403482d", "name": "Les Compagnons Du Devoir", "category": "community_services_non_profits", "confidence": 0.9388740675067667, "address": "48 Quai Malakoff"}, "geometry": {"type": "Point", "coordinates": [-1.5421888, 47.21552726]}}, {"type": "Feature", "properties": {"id": "dfbd5f69-0649-4c5a-809d-115e4ac899fc", "name": "La Cr\u00eaperie du Bouffay", "category": "pancake_house", "confidence": 0.9657719329850477, "address": "15 Rue des Petites \u00c9curies"}, "geometry": {"type": "Point", "coordinates": [-1.55248, 47.2154]}}, {"type": "Feature", "properties": {"id": "7486b726-0447-4565-a957-5304ee8dbcb1", "name": "Ecole Murs Dec", "category": "vocational_and_technical_school", "confidence": 0.9367283950617284, "address": "11 Rue Monteil"}, "geometry": {"type": "Point", "coordinates": [-1.547779, 47.213196]}}, {"type": "Feature", "properties": {"id": "7f78b132-fe8d-4569-9483-a2899dac9b9f", "name": "Dynamique Sophro", "category": "naturopathic_holistic", "confidence": 0.9388740675067667, "address": "1 Rue de la Biscuiterie"}, "geometry": {"type": "Point", "coordinates": [-1.54484643, 47.2152679]}}, {"type": "Feature", "properties": {"id": "9bee2b98-f973-4311-98a2-8cc750b35f4a", "name": "Night L Nantes", "category": "bar", "confidence": 0.9918101462025052, "address": "11 All\u00e9e du Port Maillard"}, "geometry": {"type": "Point", "coordinates": [-1.5519811, 47.21486671]}}, {"type": "Feature", "properties": {"id": "e6e83747-1e09-4da0-ac5c-61810a9a4106", "name": "Pret Pro", "category": "financial_advising", "confidence": 0.9367283950617284, "address": "12 Avenue Carnot"}, "geometry": {"type": "Point", "coordinates": [-1.54533317, 47.21360894]}}, {"type": "Feature", "properties": {"id": "9ac7706b-aae8-4cb5-a1aa-ed5394629778", "name": "Maison des Compagnons de Nantes", "category": "education", "confidence": 0.77, "address": "48 quai de Malakoff"}, "geometry": {"type": "Point", "coordinates": [-1.5419793897751766, 47.215538345763264]}}, {"type": "Feature", "properties": {"id": "a8a728a2-7a9a-4fd8-b043-b0640afc4657", "name": "Restaurant du Lieu Unique", "category": "french_restaurant", "confidence": 0.77, "address": "2 rue de la Biscuiterie"}, "geometry": {"type": "Point", "coordinates": [-1.545478105545044, 47.21537067714358]}}, {"type": "Feature", "properties": {"id": "e16f4bda-769b-42a8-ac76-bca3953eb423", "name": "Vucciria", "category": "pizza_restaurant", "confidence": 0.9388740675067667, "address": "2 Rue de Jemmapes"}, "geometry": {"type": "Point", "coordinates": [-1.54525495, 47.213249]}}, {"type": "Feature", "properties": {"id": "0fa93e76-1cbe-4d66-b906-d8096d6347ff", "name": "TB bar", "category": "bar", "confidence": 0.9657719329850477, "address": "11 All\u00e9e du Port Maillard"}, "geometry": {"type": "Point", "coordinates": [-1.5519142889638662, 47.21480137949819]}}, {"type": "Feature", "properties": {"id": "50c75d6e-6833-4516-ba72-4c3133dfb81d", "name": "Steph & Co", "category": "hair_salon", "confidence": 0.9388740675067667, "address": "4 Rue de Jemmapes"}, "geometry": {"type": "Point", "coordinates": [-1.54548849, 47.21319317]}}, {"type": "Feature", "properties": {"id": "d67cfa4d-e0a8-4ddd-af80-54793c313209", "name": "Gare aux Cocottes", "category": "french_restaurant", "confidence": 0.9657719329850477, "address": "45, quai de Malakoff"}, "geometry": {"type": "Point", "coordinates": [-1.54149, 47.21488]}}, {"type": "Feature", "properties": {"id": "27f5710d-c55b-4c65-9ee3-7affe9cd7f8f", "name": "G et A Links recrute", "category": "professional_services", "confidence": 0.9367283950617284, "address": "13 Rue Crucy"}, "geometry": {"type": "Point", "coordinates": [-1.5481048641036588, 47.214014644297876]}}, {"type": "Feature", "properties": {"id": "663a7652-a822-4e3b-81ee-3547b4068329", "name": "Groupe The LINKS", "category": "advertising_agency", "confidence": 0.9367283950617284, "address": "13 Rue Crucy"}, "geometry": {"type": "Point", "coordinates": [-1.54795, 47.21398]}}, {"type": "Feature", "properties": {"id": "6c1f6da9-e5e2-4ab8-b9c5-62ababc18012", "name": "A Plein R\u00eaves", "category": "comic_books_store", "confidence": 0.9859410355265563, "address": "13 All\u00e9e du Port Maillard"}, "geometry": {"type": "Point", "coordinates": [-1.55261128, 47.214738]}}, {"type": "Feature", "properties": {"id": "91facadc-6844-418c-beb5-3f7dd6c2ce0d", "name": "Groupe Compose", "category": "real_estate_agent", "confidence": 0.9388740675067667, "address": "1 Rue de Strasbourg"}, "geometry": {"type": "Point", "coordinates": [-1.55063517, 47.21522699]}}, {"type": "Feature", "properties": {"id": "5e93b82e-f9e5-4d70-9747-a83429865b80", "name": "Philippe", "category": "shopping", "confidence": 0.9388740675067667, "address": "2 Rue Crucy"}, "geometry": {"type": "Point", "coordinates": [-1.54573924, 47.2155954]}}, {"type": "Feature", "properties": {"id": "672d9435-0b58-489d-87a0-ceec299a4227", "name": "Pharmacie des Congr\u00e8s", "category": "pharmacy", "confidence": 0.9388740675067667, "address": "8T Rue \u00c9mile P\u00e9hant"}, "geometry": {"type": "Point", "coordinates": [-1.54640944, 47.21361954]}}, {"type": "Feature", "properties": {"id": "c59ad99d-77a5-4146-b4bd-948f416c7f15", "name": "Feydball", "category": "football_stadium", "confidence": 0.9388740675067667, "address": "Cr Franklin Roosevelt"}, "geometry": {"type": "Point", "coordinates": [-1.55144719, 47.21439076]}}, {"type": "Feature", "properties": {"id": "8b861749-472e-448a-ba90-5fb6c781c841", "name": "HoPoPop Caf\u00e9", "category": "bar", "confidence": 0.9918101462025052, "address": "6 All\u00e9e du Port Maillard"}, "geometry": {"type": "Point", "coordinates": [-1.55101591, 47.21507549]}}, {"type": "Feature", "properties": {"id": "27c18c2a-4ef0-44d3-917d-750140f03ae9", "name": "Gescall", "category": "professional_services", "confidence": 0.77, "address": "3 rue Emile Pehant"}, "geometry": {"type": "Point", "coordinates": [-1.5458244957786367, 47.21352813805637]}}, {"type": "Feature", "properties": {"id": "2f9c490e-fa4a-44f9-ab9e-137fa3009806", "name": "O'Spectacles", "category": "arts_and_entertainment", "confidence": 0.9918101462025052, "address": "21 Quai Ferdinand Favre"}, "geometry": {"type": "Point", "coordinates": [-1.54463146, 47.21517793]}}, {"type": "Feature", "properties": {"id": "c5e7ee54-1cba-44bd-aaa3-9d242f9ceb79", "name": "Confluenz", "category": "accountant", "confidence": 0.9388740675067667, "address": "31 Quai Malakoff"}, "geometry": {"type": "Point", "coordinates": [-1.54120386, 47.21466937]}}, {"type": "Feature", "properties": {"id": "b4bc6c56-10d2-482d-923d-33f12408bc83", "name": "Salon Handmade Showroom", "category": "community_services_non_profits", "confidence": 0.9367283950617284, "address": "22 Rue \u00c9mile P\u00e9hant"}, "geometry": {"type": "Point", "coordinates": [-1.547905, 47.212791]}}, {"type": "Feature", "properties": {"id": "f6b96b53-71e6-4205-921e-ee2a53ce7307", "name": "Carr\u00e9 Feydeau", "category": "landmark_and_historical_building", "confidence": 0.9367283950617284, "address": "19 Parvis Neptune"}, "geometry": {"type": "Point", "coordinates": [-1.55220123, 47.21388821]}}, {"type": "Feature", "properties": {"id": "04e5a19f-e2f2-41da-ba1c-6c6a8b950ec9", "name": "le lieu unique (officiel)", "category": "topic_concert_venue", "confidence": 0.9764705882352941, "address": "Quai Ferdinand-Favre"}, "geometry": {"type": "Point", "coordinates": [-1.5425599275965942, 47.21334167758741]}}, {"type": "Feature", "properties": {"id": "95f4446c-71ca-47fc-aedd-8e100f80d82e", "name": "Le Cavo", "category": "dance_club", "confidence": 0.9388740675067667, "address": "1 Rue des Petites \u00c9curies"}, "geometry": {"type": "Point", "coordinates": [-1.55230535, 47.21502704]}}, {"type": "Feature", "properties": {"id": "6798a267-998f-4be8-9089-b9ba43392a12", "name": "Kidz Optic", "category": "eyewear_and_optician", "confidence": 0.77, "address": "9 rue de Strasbourg"}, "geometry": {"type": "Point", "coordinates": [-1.5511590117611809, 47.21567424149499]}}, {"type": "Feature", "properties": {"id": "49eae797-f39c-4b6a-bbbb-53a3cc3bc495", "name": "ibis Nantes Centre Gare Sud", "category": "hotel", "confidence": 0.9859410355265563, "address": "3 All\u00e9e Baco"}, "geometry": {"type": "Point", "coordinates": [-1.54745118, 47.2147889]}}, {"type": "Feature", "properties": {"id": "0d77b043-342d-492d-9c23-839c1a30c116", "name": "Delirium Caf\u00e9", "category": "bar", "confidence": 0.77, "address": "19 all\u00e9e Baco"}, "geometry": {"type": "Point", "coordinates": [-1.5503759990563235, 47.21326121648495]}}, {"type": "Feature", "properties": {"id": "8d604a8a-b9c5-454c-886e-ba55eb6c6e2b", "name": "Quai Malakoff", "category": "parking", "confidence": 0.9657719329850477, "address": "48 Quai de Malakoff"}, "geometry": {"type": "Point", "coordinates": [-1.54211614, 47.21541363]}}, {"type": "Feature", "properties": {"id": "7e05c67a-74e3-4f38-bf05-f8ba967f7afc", "name": "Myrtil", "category": "restaurant", "confidence": 0.9388740675067667, "address": "1 All\u00e9e de la Maison Rouge"}, "geometry": {"type": "Point", "coordinates": [-1.55059433, 47.21281016]}}, {"type": "Feature", "properties": {"id": "2dfc346f-344f-40a1-8255-ced90645613f", "name": "Hammam Zein", "category": "spas", "confidence": 0.9859410355265563, "address": "Le Lieu Unique, 2 Rue de la Biscuiterie"}, "geometry": {"type": "Point", "coordinates": [-1.54587001, 47.21533228]}}, {"type": "Feature", "properties": {"id": "a43772ac-18b0-4b14-a226-74af30fa2701", "name": "Audika", "category": "audiologist", "confidence": 0.9388740675067667, "address": "10 All\u00e9e du Port Maillard"}, "geometry": {"type": "Point", "coordinates": [-1.55170594, 47.21502277]}}, {"type": "Feature", "properties": {"id": "0ee4ffbd-733c-40da-8834-df1ba915f2e8", "name": "Adecco Tertiaire Nantes", "category": "employment_agencies", "confidence": 0.9388740675067667, "address": "10 Rue Four\u00e9"}, "geometry": {"type": "Point", "coordinates": [-1.546435, 47.21370257]}}, {"type": "Feature", "properties": {"id": "ba3dd85e-92fa-4bd8-ba2d-59ab3ccb8a54", "name": "MULTIBURO NANTES CONGR\u00c8S", "category": "coworking_space", "confidence": 0.77, "address": "12 avenue Carnot"}, "geometry": {"type": "Point", "coordinates": [-1.5452922712980377, 47.2135725109414]}}, {"type": "Feature", "properties": {"id": "48bd06d9-5d71-47c6-9dfb-2f4c7baf84ba", "name": "L'Ouvre-Boites 44", "category": "professional_services", "confidence": 0.9388740675067667, "address": "20 All\u00e9e de la Maison Rouge"}, "geometry": {"type": "Point", "coordinates": [-1.55091609, 47.21293246]}}, {"type": "Feature", "properties": {"id": "d815e599-ba15-4d25-a691-5fc17f5aa485", "name": "La buvette de chez maman", "category": "bar", "confidence": 0.9388740675067667, "address": "1 Rue de la Juiverie"}, "geometry": {"type": "Point", "coordinates": [-1.55263254, 47.21568064]}}, {"type": "Feature", "properties": {"id": "5d66928d-4789-405a-87be-8cbe371c09e1", "name": "Le Coup de Pompe", "category": "pub", "confidence": 0.9388740675067667, "address": "1 Rue Paul Dubois"}, "geometry": {"type": "Point", "coordinates": [-1.5511073, 47.2152498]}}, {"type": "Feature", "properties": {"id": "6d40de98-9c61-4f64-8018-769028677db6", "name": "Restaurant Arinsto", "category": "restaurant", "confidence": 0.9657719329850477, "address": "8 Rue Monteil"}, "geometry": {"type": "Point", "coordinates": [-1.5481196917217346, 47.213530230433115]}}, {"type": "Feature", "properties": {"id": "a6444f30-7424-4ce5-92ea-71651ff809bd", "name": "Nantes M\u00e9tropole", "category": "public_and_government_association", "confidence": 0.9388740675067667, "address": "2 Cours du Champ de Mars"}, "geometry": {"type": "Point", "coordinates": [-1.54422153, 47.21392569]}}, {"type": "Feature", "properties": {"id": "c11906fc-97aa-416b-81e5-892bbfa28ca0", "name": "L\u00ea B\u00f6 Vins", "category": "steakhouse", "confidence": 0.9388740675067667, "address": "6 Rue des Petites \u00c9curies"}, "geometry": {"type": "Point", "coordinates": [-1.55211209, 47.21516323]}}, {"type": "Feature", "properties": {"id": "011bb008-a65a-464d-b6ef-dbc334237db9", "name": "Delynes", "category": "web_designer", "confidence": 0.9388740675067667, "address": "31 Quai Malakoff"}, "geometry": {"type": "Point", "coordinates": [-1.54098645, 47.21451174]}}, {"type": "Feature", "properties": {"id": "8920bdec-e810-4083-954e-0f9e3d20fa7b", "name": "Bar / Lieu Unique", "category": "bar", "confidence": 0.9854475308641976, "address": "2 Quai Ferdinand Favre"}, "geometry": {"type": "Point", "coordinates": [-1.5456584050230007, 47.21552574500016]}}, {"type": "Feature", "properties": {"id": "3228cc5c-2888-4cd3-9c65-1928eeba343d", "name": "Pont de la Rotonde", "category": "bridge", "confidence": 0.9657719329850477, "address": null}, "geometry": {"type": "Point", "coordinates": [-1.54665, 47.2155]}}, {"type": "Feature", "properties": {"id": "be40ad54-3e81-4812-a5f6-18ea943523a0", "name": "McCaf\u00e9", "category": "coffee_shop", "confidence": 0.4, "address": "1 cours du commandant d\u2019Estienne d\u2019Orves"}, "geometry": {"type": "Point", "coordinates": [-1.552141848805777, 47.214387929618894]}}, {"type": "Feature", "properties": {"id": "4ac29e6d-cb84-4898-9b03-dabe35f37ea0", "name": "ibis Nantes Centre Gare South", "category": "hotel", "confidence": 0.4, "address": "3 Allee Baco, 44000 NANTES"}, "geometry": {"type": "Point", "coordinates": [-1.54694, 47.215202]}}, {"type": "Feature", "properties": {"id": "5e0ed435-8103-490a-ae2f-2642bfcb5d29", "name": "Aasivik", "category": "professional_services", "confidence": 0.9367283950617284, "address": "12 Avenue Carnot"}, "geometry": {"type": "Point", "coordinates": [-1.54523716, 47.21360655]}}, {"type": "Feature", "properties": {"id": "a6b2734a-a875-40f8-93fa-40c2149bb96b", "name": "Afev Nantes", "category": "youth_organizations", "confidence": 0.9388740675067667, "address": "43 Rue du Pr\u00e9 Gauchet"}, "geometry": {"type": "Point", "coordinates": [-1.54028271, 47.21418227]}}, {"type": "Feature", "properties": {"id": "075eb799-8034-4539-be91-a50fdbf21693", "name": "Brasserie F\u00e9lix", "category": "french_restaurant", "confidence": 0.77, "address": "1 rue Lef\u00e8vre Utile"}, "geometry": {"type": "Point", "coordinates": [-1.5434769528291392, 47.214277261180314]}}, {"type": "Feature", "properties": {"id": "0f97fdee-4f2f-4c23-8b8c-3dce78e1bd55", "name": "Fibre Sport", "category": "sports_and_fitness_instruction", "confidence": 0.9388740675067667, "address": "2 Rue Crucy"}, "geometry": {"type": "Point", "coordinates": [-1.54663823, 47.21484982]}}, {"type": "Feature", "properties": {"id": "587fc859-b3ad-4a55-b287-36b445b91ad4", "name": "Yoopala", "category": "child_care_and_day_care", "confidence": 0.77, "address": "12 avenue Carnot"}, "geometry": {"type": "Point", "coordinates": [-1.5452922712980377, 47.2135725109414]}}, {"type": "Feature", "properties": {"id": "bd6e99ca-38c7-40b7-930c-b7faee0b39d1", "name": "Sale & Pepe", "category": "pizza_restaurant", "confidence": 0.77, "address": "2 rue de Jemmapes"}, "geometry": {"type": "Point", "coordinates": [-1.5452729165554047, 47.21329677285771]}}, {"type": "Feature", "properties": {"id": "75e62633-6f87-468a-9b9a-36d9ec003ad9", "name": "Cabinet ABD", "category": "professional_services", "confidence": 0.9388740675067667, "address": "4B All\u00e9e Baco"}, "geometry": {"type": "Point", "coordinates": [-1.54788061, 47.21468774]}}, {"type": "Feature", "properties": {"id": "7594dded-4416-4740-9062-6b1e74cb664c", "name": "ADA Location", "category": "car_rental_agency", "confidence": 0.9388740675067667, "address": "5 Rue des Remorqueurs"}, "geometry": {"type": "Point", "coordinates": [-1.54112851, 47.21524328]}}, {"type": "Feature", "properties": {"id": "bd488ef8-0197-4af5-9c85-56e9ee9dcf74", "name": "Assadia Nantes", "category": "home_service", "confidence": 0.9388740675067667, "address": "1 All\u00e9e de la Maison Rouge"}, "geometry": {"type": "Point", "coordinates": [-1.55068952, 47.2127719]}}, {"type": "Feature", "properties": {"id": "097887c2-79ed-492f-85a3-66bbf2dba6fe", "name": "Costructor", "category": "software_development", "confidence": 0.9764705882352941, "address": "rue de la tour d'Auvergne"}, "geometry": {"type": "Point", "coordinates": [-1.5523995, 47.215573545003]}}, {"type": "Feature", "properties": {"id": "2b3f4009-8943-40ea-9e20-7b308001924e", "name": "Station Cit\u00e9 Internationale des Congr\u00e8s \u278d", "category": "bus_station", "confidence": 0.9657719329850477, "address": "avenue Jean-Claude Bonduelle "}, "geometry": {"type": "Point", "coordinates": [-1.5426844410161338, 47.21312851759243]}}, {"type": "Feature", "properties": {"id": "afa1d097-086a-4c0c-bf92-3d076b8f878c", "name": "The Groove Academy Nantes", "category": "art_gallery", "confidence": 0.9657719329850477, "address": "18B All\u00e9e Baco"}, "geometry": {"type": "Point", "coordinates": [-1.550123587184, 47.213492788451]}}, {"type": "Feature", "properties": {"id": "8f6b8ce2-7c2f-4ba2-9853-4825a1c554b7", "name": "La Petite Fourchette", "category": "bar", "confidence": 0.77, "address": "12 rue de Jemmapes"}, "geometry": {"type": "Point", "coordinates": [-1.546061486005783, 47.21298943231298]}}, {"type": "Feature", "properties": {"id": "7d872209-5edd-41a2-a6cd-cd6cd53de5cb", "name": "Conseil de d\u00e9veloppement de Nantes M\u00e9tropole", "category": "community_services_non_profits", "confidence": 0.9388740675067667, "address": "2 Avenue Carnot"}, "geometry": {"type": "Point", "coordinates": [-1.54602958, 47.21440782]}}, {"type": "Feature", "properties": {"id": "4b1a71c0-fbd2-4ff1-9862-424c760b2cb2", "name": "D\u00e9cor'Action", "category": "interior_design", "confidence": 0.77, "address": "7 rue de Strasbourg"}, "geometry": {"type": "Point", "coordinates": [-1.551043, 47.215571]}}, {"type": "Feature", "properties": {"id": "f2240516-2b26-44db-96b8-5f8a17ae06fb", "name": "Sp\u00e9cialit\u00e9s Tunisiennes Nantes ", "category": "restaurant", "confidence": 0.9367283950617284, "address": "46 Quai Malakoff"}, "geometry": {"type": "Point", "coordinates": [-1.54179, 47.21528]}}, {"type": "Feature", "properties": {"id": "21086f17-e24d-4ca9-848d-17bb7dc7c030", "name": "Agence de Nantes", "category": "banks", "confidence": 0.4, "address": "38 rue du pr\u00e9 Gauchet"}, "geometry": {"type": "Point", "coordinates": [-1.539894, 47.2144658]}}, {"type": "Feature", "properties": {"id": "a9b66399-4d4f-4012-b8f2-22b54d6d9f8c", "name": "S\u00e9jours et Affaires", "category": "service_apartments", "confidence": 0.9388740675067667, "address": "2 Rue \u00c9mile P\u00e9hant"}, "geometry": {"type": "Point", "coordinates": [-1.54544709, 47.21383002]}}, {"type": "Feature", "properties": {"id": "07189f6b-cdd2-45c5-b60d-bb33e1d0d3ba", "name": "Cit\u00e9 des Congr\u00e8s de Nantes", "category": "flea_market", "confidence": 0.9388740675067667, "address": "5 Rue de Valmy"}, "geometry": {"type": "Point", "coordinates": [-1.5430444, 47.21299292]}}, {"type": "Feature", "properties": {"id": "349bbd11-b5a5-4973-ac6d-03fc2be23680", "name": "Rue Marcel Paul", "category": "parking", "confidence": 0.9367283950617284, "address": "Rue Marcel Paul"}, "geometry": {"type": "Point", "coordinates": [-1.54059, 47.21546]}}, {"type": "Feature", "properties": {"id": "cec26468-9c2e-4b3f-99f3-ee55b972e8ff", "name": "Village d'Asie", "category": "asian_restaurant", "confidence": 0.9388740675067667, "address": "5 Rue des Petites \u00c9curies"}, "geometry": {"type": "Point", "coordinates": [-1.55238797, 47.21515959]}}, {"type": "Feature", "properties": {"id": "6d27b02d-9f4b-428a-8bd4-2bc13797b768", "name": "Appart'City Confort Nantes Cit\u00e9 des Congr\u00e8s", "category": "hotel", "confidence": 0.9859410355265563, "address": "2 Rue \u00c9mile Masson"}, "geometry": {"type": "Point", "coordinates": [-1.54635137, 47.21411393]}}, {"type": "Feature", "properties": {"id": "15b80ff4-1da8-4229-94fa-1560c91bd3b7", "name": "Le Triporteur", "category": "french_restaurant", "confidence": 0.77, "address": "4 rue Emile Masson"}, "geometry": {"type": "Point", "coordinates": [-1.546552424930035, 47.214087016817174]}}, {"type": "Feature", "properties": {"id": "8c43ad8e-ce11-486a-98f4-95dccc88dcfd", "name": "Sofiane", "category": "transportation", "confidence": 0.9388740675067667, "address": "2 Rue Crucy"}, "geometry": {"type": "Point", "coordinates": [-1.54649287, 47.21489574]}}, {"type": "Feature", "properties": {"id": "8da945b6-8bbd-413a-b8ff-d8b362db88b4", "name": "Bella Pizza", "category": "pizza_restaurant", "confidence": 0.9859410355265563, "address": "46 Quai Malakoff"}, "geometry": {"type": "Point", "coordinates": [-1.54071087, 47.21433242]}}, {"type": "Feature", "properties": {"id": "dd35d812-559d-457b-b689-455e56acb8c6", "name": "Abradebarras Nantes", "category": "professional_services", "confidence": 0.9388740675067667, "address": "2 Rue Crucy"}, "geometry": {"type": "Point", "coordinates": [-1.54656954, 47.21478112]}}, {"type": "Feature", "properties": {"id": "49381515-762e-4905-933b-8390b9f3295c", "name": "All\u00e9e de la Maison-Rouge", "category": "landmark_and_historical_building", "confidence": 0.9657719329850477, "address": null}, "geometry": {"type": "Point", "coordinates": [-1.5514165, 47.2128382]}}, {"type": "Feature", "properties": {"id": "d18a9c1f-4849-4191-b923-4f4b48d67db2", "name": "Nantes Saint-Nazaire", "category": "public_and_government_association", "confidence": 0.9388740675067667, "address": "16 Rue de Cornulier"}, "geometry": {"type": "Point", "coordinates": [-1.53997581, 47.21463772]}}, {"type": "Feature", "properties": {"id": "b7bf2ea6-b7b0-4352-9276-31f251c65cf0", "name": "L'\u00c9cole de la Microfinance", "category": "education", "confidence": 0.9388740675067667, "address": "10 Rue Paul Dubois"}, "geometry": {"type": "Point", "coordinates": [-1.55118158, 47.21558414]}}, {"type": "Feature", "properties": {"id": "a47129f0-a117-4395-be4b-d10f79dd1c81", "name": "9maillard cocktails bar", "category": "pub", "confidence": 0.9367283950617284, "address": "6 All\u00e9e du Port Maillard"}, "geometry": {"type": "Point", "coordinates": [-1.5512, 47.21502]}}, {"type": "Feature", "properties": {"id": "575e54bb-083d-4030-bb87-9358988ed505", "name": "Starshop Moto", "category": "motorcycle_dealer", "confidence": 0.9764705882352941, "address": null}, "geometry": {"type": "Point", "coordinates": [-1.5504661, 47.2152202]}}, {"type": "Feature", "properties": {"id": "629053d2-82ab-4936-9a45-f837217f19c1", "name": "Kitkat Bar", "category": "cocktail_bar", "confidence": 0.9388740675067667, "address": "3 Rue de la Juiverie"}, "geometry": {"type": "Point", "coordinates": [-1.55264874, 47.21570817]}}, {"type": "Feature", "properties": {"id": "7abe7d61-6e31-4edb-b088-0973a683a2c9", "name": "R\u00e9sidence Key Baco", "category": "youth_organizations", "confidence": 0.9388740675067667, "address": "11 All\u00e9e Baco"}, "geometry": {"type": "Point", "coordinates": [-1.54894078, 47.21414911]}}, {"type": "Feature", "properties": {"id": "b1c04185-57ad-435d-b1fb-dea93c8dd57c", "name": "Metalcorner", "category": "topic_concert_venue", "confidence": 0.9388740675067667, "address": "CHU de Nantes, 1 Place Alexis Ricordeau"}, "geometry": {"type": "Point", "coordinates": [-1.55138373, 47.21554388]}}, {"type": "Feature", "properties": {"id": "2e90bcad-d10e-4159-b8c2-4b72dc20c84d", "name": "ICEO Habitat", "category": "real_estate_agent", "confidence": 0.9764705882352941, "address": "35 Rue Crucy"}, "geometry": {"type": "Point", "coordinates": [-1.550152, 47.212846]}}, {"type": "Feature", "properties": {"id": "9c4a5e75-4e93-427b-bf1a-bb9f27c56cac", "name": "Novotel Nantes Centre Gare", "category": "hotel", "confidence": 0.9859410355265563, "address": "3 Rue de Valmy"}, "geometry": {"type": "Point", "coordinates": [-1.54378958, 47.21348104]}}, {"type": "Feature", "properties": {"id": "4bbdc2ed-df27-482a-a05f-fb4a4e3650b3", "name": "Sbc Production", "category": "contractor", "confidence": 0.9388740675067667, "address": "31 Quai Malakoff"}, "geometry": {"type": "Point", "coordinates": [-1.54090371, 47.21454127]}}, {"type": "Feature", "properties": {"id": "bf0fbbfa-f716-4ed0-ad4b-b02dcfc11f6a", "name": "Brasserie de la Poule Noire", "category": "brewery", "confidence": 0.9388740675067667, "address": "1 Rue \u00c9mile P\u00e9hant"}, "geometry": {"type": "Point", "coordinates": [-1.54562357, 47.21363304]}}, {"type": "Feature", "properties": {"id": "d98134db-5ff1-4199-b709-a17b15659aea", "name": "Office de Tourisme de Nantes Metropole", "category": "travel", "confidence": 0.9657719329850477, "address": "7 Rue de Valmy"}, "geometry": {"type": "Point", "coordinates": [-1.543846, 47.21358]}}, {"type": "Feature", "properties": {"id": "b6ec7bf5-89e0-4330-adab-87b333c90bab", "name": "Assadia Garde d'Enfants Intelligente", "category": "child_care_and_day_care", "confidence": 0.77, "address": "1 all\u00e9e de la Maison Rouge"}, "geometry": {"type": "Point", "coordinates": [-1.5506788380455252, 47.21284167053626]}}, {"type": "Feature", "properties": {"id": "aedea346-17b2-4d15-b1bf-ce7fa123d4fb", "name": "Mikui", "category": "restaurant", "confidence": 0.9388740675067667, "address": "7 Rue des Remorqueurs"}, "geometry": {"type": "Point", "coordinates": [-1.54118583, 47.21514098]}}, {"type": "Feature", "properties": {"id": "c6c4dcff-3d49-4191-a906-b2698e5bd129", "name": "Agent g\u00e9n\u00e9ral AXA Pr\u00e9voyance et Patrimoine Olivier Da Costa", "category": "insurance_agency", "confidence": 0.9367283950617284, "address": "1 Rue Duguesclin "}, "geometry": {"type": "Point", "coordinates": [-1.5462296006091, 47.213350689972]}}, {"type": "Feature", "properties": {"id": "f9bd3d3a-50a1-4353-8d9e-3c3672e371b0", "name": "Buro Club Nantes Gare", "category": "event_planning", "confidence": 0.9657719329850477, "address": "2 Rue Crucy"}, "geometry": {"type": "Point", "coordinates": [-1.546505, 47.214854]}}, {"type": "Feature", "properties": {"id": "123199fe-f747-46c7-bae9-c15a9ecf5b2d", "name": "Poyet-Poullet Arnaud", "category": "doctor", "confidence": 0.77, "address": "4 rue Four\u00e9"}, "geometry": {"type": "Point", "coordinates": [-1.5463719387371686, 47.214271038782094]}}, {"type": "Feature", "properties": {"id": "f44cecf6-28a3-41c1-a586-cd95c5dadbe2", "name": "Athena SARL d'Architecture", "category": "architectural_designer", "confidence": 0.9388740675067667, "address": "1 Rue des Remorqueurs"}, "geometry": {"type": "Point", "coordinates": [-1.54091958, 47.21532043]}}, {"type": "Feature", "properties": {"id": "5b79a1e1-04c4-4aa5-958f-7ad79bce7ea5", "name": "S\u00e9jours & Affaires Nantes Ducs de Bretagne", "category": "hotel", "confidence": 0.77, "address": "2/4 Rue Emile P\u00e9hant"}, "geometry": {"type": "Point", "coordinates": [-1.5454941179258073, 47.213837304944]}}, {"type": "Feature", "properties": {"id": "0509dcd9-7e2b-498c-ac5b-e1c7aab8d47d", "name": "Dhagpo Nantes", "category": "meditation_center", "confidence": 0.9388740675067667, "address": "41 Rue du Pr\u00e9 Gauchet"}, "geometry": {"type": "Point", "coordinates": [-1.54004179, 47.21429194]}}, {"type": "Feature", "properties": {"id": "953b5032-a1bb-445f-b43c-923bc6732e57", "name": "Cr\u00e9ation de Soci\u00e9t\u00e9 Nantes", "category": "business", "confidence": 0.9388740675067667, "address": "31 Quai Malakoff"}, "geometry": {"type": "Point", "coordinates": [-1.54090052, 47.21454545]}}, {"type": "Feature", "properties": {"id": "1ece34e4-184e-417f-ab26-98a2436338dc", "name": "Le Lieu Unique Restaurant", "category": "restaurant", "confidence": 0.9388740675067667, "address": "2 Rue de la Biscuiterie"}, "geometry": {"type": "Point", "coordinates": [-1.54518841, 47.21538563]}}, {"type": "Feature", "properties": {"id": "45451f33-4c57-4564-9c98-c69c4a177000", "name": "Arcanciel", "category": "interior_design", "confidence": 0.77, "address": "21 rue Crucy"}, "geometry": {"type": "Point", "coordinates": [-1.5488343293596816, 47.213615106444934]}}, {"type": "Feature", "properties": {"id": "e0520835-fd87-498a-831f-bbe0ce14bd76", "name": "L\u00fcmia - Agence de communication \u00e0 Nantes", "category": "advertising_agency", "confidence": 0.9388740675067667, "address": "31 Quai Malakoff"}, "geometry": {"type": "Point", "coordinates": [-1.54090273, 47.21454104]}}, {"type": "Feature", "properties": {"id": "f90c8a9b-a70c-4402-ba5a-486e752ced93", "name": "National", "category": "car_rental_agency", "confidence": 0.4, "address": "Enterprise Rent A Car, 13 Rue De Cornulier"}, "geometry": {"type": "Point", "coordinates": [-1.542115, 47.214467]}}, {"type": "Feature", "properties": {"id": "99967a90-46be-40bc-9314-7c52c3a493e8", "name": "Orchestre National des Pays de la Loire", "category": "music_venue", "confidence": 0.9388740675067667, "address": "7 Rue de Valmy"}, "geometry": {"type": "Point", "coordinates": [-1.54387359, 47.21316792]}}, {"type": "Feature", "properties": {"id": "9681b24b-7f91-4902-92b9-1b256672d82d", "name": "John McByrne Irish Pub", "category": "irish_pub", "confidence": 0.9859410355265563, "address": "21 Rue des Petites \u00c9curies"}, "geometry": {"type": "Point", "coordinates": [-1.55255594, 47.2156961]}}, {"type": "Feature", "properties": {"id": "2baac550-ca0a-4647-9d2e-33231e013106", "name": "Auran-Agence d'Urbanisme de la R\u00e9gion Nantaise", "category": "architectural_designer", "confidence": 0.9367283950617284, "address": "2 Cours du Champ de Mars"}, "geometry": {"type": "Point", "coordinates": [-1.5441787, 47.21399685]}}, {"type": "Feature", "properties": {"id": "cd547353-d876-453c-bb67-3ac941a4123d", "name": "Civi-Ling", "category": "language_school", "confidence": 0.9388740675067667, "address": "1 All\u00e9e de la Maison Rouge"}, "geometry": {"type": "Point", "coordinates": [-1.55073348, 47.2128788]}}, {"type": "Feature", "properties": {"id": "88a6ba8b-4e96-4b37-8251-21aff08f8ddf", "name": "Nantes IMMO9", "category": "real_estate_agent", "confidence": 0.9388740675067667, "address": "2 Rue de Jemmapes"}, "geometry": {"type": "Point", "coordinates": [-1.54529272, 47.21320786]}}, {"type": "Feature", "properties": {"id": "43040d2d-c303-4268-830d-d99b7d73b0e2", "name": "Carrefour City", "category": "convenience_store", "confidence": 0.9859410355265563, "address": "6 Avenue Carnot"}, "geometry": {"type": "Point", "coordinates": [-1.54558037, 47.21404217]}}, {"type": "Feature", "properties": {"id": "69d7ea5e-f4d1-4835-adbe-ae9723c38d68", "name": "la boite \u00e0 sardines", "category": "restaurant", "confidence": 0.77, "address": "5 rue des Petites \u00c9curies"}, "geometry": {"type": "Point", "coordinates": [-1.5524376754923648, 47.215173302765976]}}, {"type": "Feature", "properties": {"id": "137991f3-485f-4224-9084-45ca0a7a9451", "name": "F\u00e9lix", "category": "french_restaurant", "confidence": 0.9388740675067667, "address": "1 Rue Lef\u00e8vre-Utile"}, "geometry": {"type": "Point", "coordinates": [-1.54351736, 47.2142217]}}, {"type": "Feature", "properties": {"id": "d13b9861-e89a-46ca-ab8a-e05a828af352", "name": "Le Peloton Bistrot", "category": "french_restaurant", "confidence": 0.9388740675067667, "address": "8 All\u00e9e Baco"}, "geometry": {"type": "Point", "coordinates": [-1.54858051, 47.21429663]}}, {"type": "Feature", "properties": {"id": "f9a3b28c-b10c-44ce-8d70-d09b8449599e", "name": "Promocash Nantes Feydeau", "category": "wholesale_store", "confidence": 0.9388740675067667, "address": "27 Parvis Neptune"}, "geometry": {"type": "Point", "coordinates": [-1.55257397, 47.21421063]}}, {"type": "Feature", "properties": {"id": "56ecec83-9d57-4b7d-83b6-4c9c95c6b798", "name": "Square Elisa-Merceur", "category": "playground", "confidence": 0.9388740675067667, "address": "Cr John Kennedy"}, "geometry": {"type": "Point", "coordinates": [-1.54906169, 47.21500721]}}, {"type": "Feature", "properties": {"id": "f929d6fa-2d0b-4f28-a0d8-06e25958660b", "name": "Lean Nov", "category": "architectural_designer", "confidence": 0.9388740675067667, "address": "31 Quai Malakoff"}, "geometry": {"type": "Point", "coordinates": [-1.54090787, 47.21454491]}}, {"type": "Feature", "properties": {"id": "5d4f3025-42fa-4843-b8a0-08ea6ee6137b", "name": "FEDELIMA - F\u00e9d\u00e9ration des Lieux de Musiques Actuelles", "category": "community_services_non_profits", "confidence": 0.9367283950617284, "address": "35 Rue Crucy"}, "geometry": {"type": "Point", "coordinates": [-1.55012442, 47.2129512]}}, {"type": "Feature", "properties": {"id": "d3f3f653-f5e7-4998-b9b9-a72a8177ffda", "name": "Blinkl", "category": "event_planning", "confidence": 0.9388740675067667, "address": "12 Rue \u00c9mile P\u00e9hant"}, "geometry": {"type": "Point", "coordinates": [-1.54720589, 47.21311983]}}, {"type": "Feature", "properties": {"id": "894c7382-2f25-4d14-b7ff-ec39591abcce", "name": "Place des Jacobins (Nantes)", "category": "public_plaza", "confidence": 0.9657719329850477, "address": null}, "geometry": {"type": "Point", "coordinates": [-1.55144, 47.2157]}}, {"type": "Feature", "properties": {"id": "fc166bd9-eee0-41cd-8bba-ef22d08e3229", "name": "Shaft", "category": "cocktail_bar", "confidence": 0.9388740675067667, "address": "14 Rue des Petites \u00c9curies"}, "geometry": {"type": "Point", "coordinates": [-1.55235399, 47.2152699]}}, {"type": "Feature", "properties": {"id": "0dee2e82-9f4a-4938-924d-6c486fe3b53f", "name": "Manhattan Associates France", "category": "it_service_and_computer_repair", "confidence": 0.77, "address": "12 avenue Carnot"}, "geometry": {"type": "Point", "coordinates": [-1.54535, 47.213624]}}, {"type": "Feature", "properties": {"id": "e91e7d0a-1f65-4fb7-95b6-b6d4a8341789", "name": "FL Patrimoine", "category": "financial_advising", "confidence": 0.77, "address": "1 rue de Strasbourg"}, "geometry": {"type": "Point", "coordinates": [-1.550782769363248, 47.215255018168044]}}, {"type": "Feature", "properties": {"id": "7b69418b-2a5a-446f-90d5-525a32c0b14b", "name": "Chateau de Nantes", "category": "monument", "confidence": 0.9657719329850477, "address": null}, "geometry": {"type": "Point", "coordinates": [-1.55149, 47.21449]}}, {"type": "Feature", "properties": {"id": "ec62d322-d3c7-46a2-82ab-34e48acdf240", "name": "Editions As", "category": "bookstore", "confidence": 0.77, "address": "14 rue Crucy"}, "geometry": {"type": "Point", "coordinates": [-1.548146060606016, 47.21412310741562]}}, {"type": "Feature", "properties": {"id": "6f14e97a-c112-43df-8b8c-e3c7b10a48ca", "name": "Grand Bain", "category": "professional_services", "confidence": 0.9657719329850477, "address": "20 All\u00e9e de la Maison Rouge"}, "geometry": {"type": "Point", "coordinates": [-1.55048, 47.21333]}}, {"type": "Feature", "properties": {"id": "920e5e11-d94f-490f-9b91-b3e6b9547c89", "name": "AFPAH", "category": "pest_control_service", "confidence": 0.9859410355265563, "address": "12 Avenue Carnot"}, "geometry": {"type": "Point", "coordinates": [-1.54523927, 47.21360574]}}, {"type": "Feature", "properties": {"id": "08f5236e-4b27-44c2-bbff-15eecc400b1c", "name": "Allo Eco", "category": "janitorial_services", "confidence": 0.9859410355265563, "address": "12 Avenue Carnot"}, "geometry": {"type": "Point", "coordinates": [-1.54523677, 47.21360511]}}, {"type": "Feature", "properties": {"id": "5b66d2eb-2b65-4f0d-93f9-345e3e9145fd", "name": "Tisse Metisse", "category": "community_services_non_profits", "confidence": 0.77, "address": "15 d boulevard Jean Moulin"}, "geometry": {"type": "Point", "coordinates": [-1.5435948055779374, 47.212756508064786]}}, {"type": "Feature", "properties": {"id": "61415e62-cb7e-4ac1-b656-753a804111e2", "name": "La Maison des Travaux Nantes-Centre", "category": "building_supply_store", "confidence": 0.77, "address": "12 avenue Carnot"}, "geometry": {"type": "Point", "coordinates": [-1.5453503812694946, 47.21362399071389]}}, {"type": "Feature", "properties": {"id": "98355d1d-7012-44a8-b717-ef01e3b6607c", "name": "La Cabane", "category": "french_restaurant", "confidence": 0.77, "address": "26 rue des petites ecuries"}, "geometry": {"type": "Point", "coordinates": [-1.5524009662716889, 47.21557064728175]}}, {"type": "Feature", "properties": {"id": "df8041bc-e537-449f-a090-f21dc919db0b", "name": "Sixt location voiture Nantes Gare", "category": "car_rental_agency", "confidence": 0.77, "address": "20 Rue Cornulier, Rue de Cornulier"}, "geometry": {"type": "Point", "coordinates": [-1.5404562767006327, 47.214876744633784]}}, {"type": "Feature", "properties": {"id": "65bcf44b-0b6e-43b3-ab4d-d8d66aa25c59", "name": "Miroir d'Eau", "category": "fountain", "confidence": 0.9388740675067667, "address": "Pl. Marc Elder"}, "geometry": {"type": "Point", "coordinates": [-1.54893365, 47.21509819]}}, {"type": "Feature", "properties": {"id": "436eecb6-64ef-4846-9144-df5ac7910ced", "name": "Affaire d'une Vie", "category": "naturopathic_holistic", "confidence": 0.9388740675067667, "address": "22 Rue \u00c9mile P\u00e9hant"}, "geometry": {"type": "Point", "coordinates": [-1.54815956, 47.21292496]}}, {"type": "Feature", "properties": {"id": "76b6f430-bca2-47d7-a0f6-216bcd903d20", "name": "Hypnose Nantes", "category": "naturopathic_holistic", "confidence": 0.9388740675067667, "address": "3 Rue de la Biscuiterie"}, "geometry": {"type": "Point", "coordinates": [-1.54491991, 47.21504964]}}, {"type": "Feature", "properties": {"id": "da8a40f2-24ef-4766-8c61-3c2c2b9e7c25", "name": "Lab'O Lentilles", "category": "eyewear_and_optician", "confidence": 0.9388740675067667, "address": "7 All\u00e9e de la Maison Rouge"}, "geometry": {"type": "Point", "coordinates": [-1.55159409, 47.21269707]}}, {"type": "Feature", "properties": {"id": "7f371402-0a79-40f1-8433-7962c9b9d2d6", "name": "Cours du Champ-de-Mars", "category": "landmark_and_historical_building", "confidence": 0.9657719329850477, "address": null}, "geometry": {"type": "Point", "coordinates": [-1.5448451, 47.2143504]}}, {"type": "Feature", "properties": {"id": "1ae592ad-6994-431c-b0e5-70c581c8b987", "name": "E Baranger Architecte dplg", "category": "architectural_designer", "confidence": 0.9388740675067667, "address": "7 Rue des \u00c9tats"}, "geometry": {"type": "Point", "coordinates": [-1.55056527, 47.21546788]}}, {"type": "Feature", "properties": {"id": "8f0768f2-4e64-4975-b2f4-deb9f50b0e58", "name": "La Boulangerie d'Honor\u00e9", "category": "bakery", "confidence": 0.9859410355265563, "address": "12 Avenue Carnot"}, "geometry": {"type": "Point", "coordinates": [-1.54528716, 47.2137327]}}, {"type": "Feature", "properties": {"id": "9c79ac71-d6d0-45d0-b841-03bb075aa1d3", "name": "Appart'City Confort Nantes Centre", "category": "hotel", "confidence": 0.9388740675067667, "address": "4 Rue des Petites \u00c9curies"}, "geometry": {"type": "Point", "coordinates": [-1.55212968, 47.21500038]}}, {"type": "Feature", "properties": {"id": "9ffbb1be-1661-4dc0-b896-d0a36ef303d1", "name": "Utopiales", "category": "arts_and_entertainment", "confidence": 0.77, "address": null}, "geometry": {"type": "Point", "coordinates": [-1.5436835072917305, 47.212749113781946]}}, {"type": "Feature", "properties": {"id": "4e8270d4-63e0-4edb-9c0b-094724a4224c", "name": "Solita Traiteur", "category": "thai_restaurant", "confidence": 0.9859410355265563, "address": "3 Rue des \u00c9chevins"}, "geometry": {"type": "Point", "coordinates": [-1.55260232, 47.21508844]}}, {"type": "Feature", "properties": {"id": "588342cd-927a-4ab9-8309-212694cb9e23", "name": "SaladBar Green is Better", "category": "salad_bar", "confidence": 0.77, "address": "12 rue de Jemmapes"}, "geometry": {"type": "Point", "coordinates": [-1.5459461510181427, 47.213023480130566]}}, {"type": "Feature", "properties": {"id": "eaac73c9-754e-4aa8-affd-06cc1a40d9f0", "name": "Arinfo", "category": "school", "confidence": 0.9921275445865609, "address": "8 Rue Monteil"}, "geometry": {"type": "Point", "coordinates": [-1.5481196917217346, 47.213530230433115]}}, {"type": "Feature", "properties": {"id": "08e14ad7-3440-49a4-90ce-9d6147ad907b", "name": "Envie De Japon", "category": "asian_restaurant", "confidence": 0.9657719329850477, "address": "1 Rue de Strasbourg"}, "geometry": {"type": "Point", "coordinates": [-1.550731, 47.215279]}}, {"type": "Feature", "properties": {"id": "66a2ef7c-3e8f-4aa7-81cd-892f5033fd2d", "name": "CHF Centre De L'Habitat Fran\u00e7ais", "category": "construction_services", "confidence": 0.9367283950617284, "address": "2 Rue Crucy"}, "geometry": {"type": "Point", "coordinates": [-1.546437, 47.214825]}}, {"type": "Feature", "properties": {"id": "3f8cbe5a-aced-40ed-abad-3547ee67c352", "name": "Mijot\u00e9 - Restaurant Nantes", "category": "restaurant", "confidence": 0.9388740675067667, "address": "10 Rue Crucy"}, "geometry": {"type": "Point", "coordinates": [-1.54783911, 47.21429561]}}, {"type": "Feature", "properties": {"id": "9918fd48-d029-440e-801d-2ff8c7e78622", "name": "Le Naantais", "category": "indian_restaurant", "confidence": 0.9388740675067667, "address": "5B All\u00e9e du Port Maillard"}, "geometry": {"type": "Point", "coordinates": [-1.55094687, 47.215117]}}, {"type": "Feature", "properties": {"id": "00f92901-9388-43fc-b905-d46fd391bbfc", "name": "R\u00e9seau Express", "category": "freight_and_cargo_service", "confidence": 0.77, "address": "4 rue Crucy"}, "geometry": {"type": "Point", "coordinates": [-1.5474608575020385, 47.214461869133025]}}, {"type": "Feature", "properties": {"id": "ab6d696a-53b1-48f3-958a-931e1477f93e", "name": "Nouvelle Inspiration - Sophrologue Nantes", "category": "naturopathic_holistic", "confidence": 0.9388740675067667, "address": "20 All\u00e9e de la Maison Rouge"}, "geometry": {"type": "Point", "coordinates": [-1.55085833, 47.21293326]}}, {"type": "Feature", "properties": {"id": "89ae31c2-540e-4863-98f0-5175c4a21ae8", "name": "Carre Diag", "category": "art_gallery", "confidence": 0.9367283950617284, "address": "2 Passage du Carrousel"}, "geometry": {"type": "Point", "coordinates": [-1.5519089002530153, 47.214521225140196]}}, {"type": "Feature", "properties": {"id": "2acb4d41-9059-474a-b2b2-7ee598b40f3d", "name": "Maison Nouvelle", "category": "engineering_services", "confidence": 0.9367283950617284, "address": "12 Avenue Carnot"}, "geometry": {"type": "Point", "coordinates": [-1.545292, 47.213573]}}], "metadata": {"theme": "places", "total": 200, "bbox": [-1.5526517235766388, 47.21269019572903, -1.5394261187725877, 47.221673307478945], "query_params": {"theme": "places", "center_lon": -1.5460389211746133, "center_lat": 47.21718175160399, "radius_m": 500, "xmin": -1.5526517235766388, "xmax": -1.5394261187725877, "ymin": 47.21269019572903, "ymax": 47.221673307478945}}}